{'lipoC2': 8.0, 'temp': 28.56, 'lipoC3S3': 12.41, 'rot1': 0, 'rot0': 0, 'rot3': 0, 'rot2': 0, 'state': 'normal', 'yaw': 0.0, 'datetime': '2018-10-12 20:01:19.906780', 'mgs': 1, 'depth': 1.157, 'time': 1.26, 'pitch': -2.54, 'roll': -0.36}
{'lipoC2': 8.0, 'temp': 28.56, 'lipoC3S3': 12.41, 'rot1': 0, 'rot0': 0, 'rot3': 0, 'rot2': 0, 'state': 'normal', 'yaw': -0.15, 'datetime': '2018-10-12 20:01:19.942696', 'mgs': 1, 'depth': 1.233, 'time': 1.36, 'pitch': -2.15, 'roll': -0.81}
{'lipoC2': 8.0, 'temp': 28.56, 'lipoC3S3': 12.41, 'rot1': 0, 'rot0': 0, 'rot3': 0, 'rot2': 0, 'state': 'normal', 'yaw': -0.52, 'datetime': '2018-10-12 20:01:19.959285', 'mgs': 1, 'depth': 1.157, 'time': 1.45, 'pitch': -1.75, 'roll': -0.88}
{'lipoC2': 8.0, 'temp': 28.69, 'lipoC3S3': 12.41, 'rot1': 0, 'rot0': 0, 'rot3': 0, 'rot2': 0, 'state': 'normal', 'yaw': -1.0, 'datetime': '2018-10-12 20:01:19.982752', 'mgs': 1, 'depth': 1.157, 'time': 1.55, 'pitch': -1.45, 'roll': -0.63}
{'lipoC2': 8.0, 'temp': 28.69, 'lipoC3S3': 12.41, 'rot1': 0, 'rot0': 0, 'rot3': 0, 'rot2': 0, 'state': 'normal', 'yaw': -1.51, 'datetime': '2018-10-12 20:01:20.005937', 'mgs': 1, 'depth': 1.157, 'time': 1.65, 'pitch': -1.12, 'roll': -0.13}
{'lipoC2': 8.0, 'temp': 28.63, 'lipoC3S3': 12.41, 'rot1': 0, 'rot0': 0, 'rot3': 0, 'rot2': 0, 'state': 'normal', 'yaw': -1.95, 'datetime': '2018-10-12 20:01:20.013156', 'mgs': 1, 'depth': 1.157, 'time': 1.74, 'pitch': -0.83, 'roll': 0.31}
{'lipoC2': 8.0, 'temp': 28.63, 'lipoC3S3': 12.41, 'rot1': 0, 'rot0': 0, 'rot3': 0, 'rot2': 0, 'state': 'normal', 'yaw': -2.17, 'datetime': '2018-10-12 20:01:20.026054', 'mgs': 1, 'depth': 1.157, 'time': 1.84, 'pitch': -0.61, 'roll': 0.47}
{'lipoC2': 8.0, 'temp': 28.63, 'lipoC3S3': 12.42, 'rot1': 0, 'rot0': 0, 'rot3': 0, 'rot2': 0, 'state': 'normal', 'yaw': -2.17, 'datetime': '2018-10-12 20:01:20.038949', 'mgs': 0, 'depth': 1.157, 'time': 1.94, 'pitch': -0.49, 'roll': 0.29}
{'lipoC2': 8.0, 'temp': 28.63, 'lipoC3S3': 12.41, 'rot1': 0, 'rot0': 0, 'rot3': 0, 'rot2': 0, 'state': 'normal', 'yaw': -2.13, 'datetime': '2018-10-12 20:01:20.046137', 'mgs': 0, 'depth': 1.233, 'time': 2.03, 'pitch': -0.47, 'roll': 0.08}
{'lipoC2': 8.0, 'temp': 28.63, 'lipoC3S3': 12.42, 'rot1': 0, 'rot0': 0, 'rot3': 0, 'rot2': 0, 'state': 'normal', 'yaw': -2.15, 'datetime': '2018-10-12 20:01:20.059074', 'mgs': 0, 'depth': 1.08, 'time': 2.13, 'pitch': -0.58, 'roll': -0.05}
{'lipoC2': 8.0, 'temp': 28.63, 'lipoC3S3': 12.41, 'rot1': 0, 'rot0': 0, 'rot3': 0, 'rot2': 0, 'state': 'normal', 'yaw': -2.41, 'datetime': '2018-10-12 20:01:20.071983', 'mgs': 0, 'depth': 1.157, 'time': 2.23, 'pitch': -0.64, 'roll': 0.02}
{'lipoC2': 8.0, 'temp': 28.63, 'lipoC3S3': 12.42, 'rot1': 0, 'rot0': 0, 'rot3': 0, 'rot2': 0, 'state': 'normal', 'yaw': -2.74, 'datetime': '2018-10-12 20:01:20.079218', 'mgs': 0, 'depth': 1.157, 'time': 2.33, 'pitch': -0.65, 'roll': 0.07}
{'lipoC2': 8.0, 'temp': 28.63, 'lipoC3S3': 12.42, 'rot1': 0, 'rot0': 0, 'rot3': 0, 'rot2': 0, 'state': 'normal', 'yaw': -3.14, 'datetime': '2018-10-12 20:01:20.092120', 'mgs': 0, 'depth': 1.157, 'time': 2.42, 'pitch': -0.64, 'roll': -0.01}
{'lipoC2': 8.0, 'temp': 28.63, 'lipoC3S3': 12.41, 'rot1': 0, 'rot0': 0, 'rot3': 0, 'rot2': 0, 'state': 'normal', 'yaw': -3.61, 'datetime': '2018-10-12 20:01:20.105023', 'mgs': 0, 'depth': 1.157, 'time': 2.52, 'pitch': -0.83, 'roll': 0.01}
{'lipoC2': 8.0, 'temp': 28.63, 'lipoC3S3': 12.42, 'rot1': 0, 'rot0': 0, 'rot3': 0, 'rot2': 0, 'state': 'normal', 'yaw': -4.05, 'datetime': '2018-10-12 20:01:20.112209', 'mgs': 0, 'depth': 1.157, 'time': 2.62, 'pitch': -1.26, 'roll': 0.5}
{'lipoC2': 8.0, 'temp': 28.63, 'lipoC3S3': 12.41, 'rot1': 0, 'rot0': 0, 'rot3': 0, 'rot2': 0, 'state': 'normal', 'yaw': -4.33, 'datetime': '2018-10-12 20:01:20.125102', 'mgs': 0, 'depth': 1.08, 'time': 2.71, 'pitch': -1.83, 'roll': 1.21}
{'lipoC2': 8.0, 'temp': 28.63, 'lipoC3S3': 12.42, 'rot1': 0, 'rot0': 0, 'rot3': 0, 'rot2': 0, 'state': 'normal', 'yaw': -4.4, 'datetime': '2018-10-12 20:01:20.137993', 'mgs': 0, 'depth': 1.08, 'time': 2.81, 'pitch': -2.21, 'roll': 1.75}
{'lipoC2': 8.0, 'temp': 28.63, 'lipoC3S3': 12.41, 'rot1': 0, 'rot0': 0, 'rot3': 0, 'rot2': 0, 'state': 'normal', 'yaw': -4.11, 'datetime': '2018-10-12 20:01:20.145332', 'mgs': 0, 'depth': 1.08, 'time': 2.91, 'pitch': -2.24, 'roll': 1.8}
{'lipoC2': 8.0, 'temp': 28.63, 'lipoC3S3': 12.41, 'rot1': 0, 'rot0': 0, 'rot3': 0, 'rot2': 0, 'state': 'normal', 'yaw': -3.64, 'datetime': '2018-10-12 20:01:20.158288', 'mgs': 0, 'depth': 1.004, 'time': 3.01, 'pitch': -2.06, 'roll': 1.43}
{'lipoC2': 8.0, 'temp': 28.63, 'lipoC3S3': 12.41, 'rot1': 0, 'rot0': 0, 'rot3': 0, 'rot2': 0, 'state': 'normal', 'yaw': -3.26, 'datetime': '2018-10-12 20:01:20.171151', 'mgs': 0, 'depth': 1.004, 'time': 3.1, 'pitch': -1.96, 'roll': 0.98}
{'lipoC2': 8.0, 'temp': 28.69, 'lipoC3S3': 12.42, 'rot1': 0, 'rot0': 0, 'rot3': 0, 'rot2': 0, 'state': 'normal', 'yaw': -2.82, 'datetime': '2018-10-12 20:01:20.178346', 'mgs': 0, 'depth': 1.08, 'time': 3.2, 'pitch': -1.99, 'roll': 0.64}
{'lipoC2': 8.0, 'temp': 28.69, 'lipoC3S3': 12.41, 'rot1': 0, 'rot0': 0, 'rot3': 0, 'rot2': 0, 'state': 'normal', 'yaw': -2.61, 'datetime': '2018-10-12 20:01:20.191220', 'mgs': 0, 'depth': 0.928, 'time': 3.3, 'pitch': -2.13, 'roll': 0.53}
{'lipoC2': 8.0, 'temp': 28.69, 'lipoC3S3': 12.41, 'rot1': 0, 'rot0': 0, 'rot3': 0, 'rot2': 0, 'state': 'normal', 'yaw': -2.72, 'datetime': '2018-10-12 20:01:20.204093', 'mgs': 0, 'depth': 1.004, 'time': 3.39, 'pitch': -2.36, 'roll': 0.62}
{'lipoC2': 8.01, 'temp': 28.63, 'lipoC3S3': 12.41, 'rot1': 0, 'rot0': 0, 'rot3': 0, 'rot2': 0, 'state': 'normal', 'yaw': -2.95, 'datetime': '2018-10-12 20:01:20.211272', 'mgs': 0, 'depth': 1.004, 'time': 3.49, 'pitch': -2.69, 'roll': 0.97}
{'lipoC2': 8.02, 'temp': 28.63, 'lipoC3S3': 12.35, 'rot1': 0, 'rot0': 0, 'rot3': 0, 'rot2': 0, 'state': 'normal', 'yaw': -3.13, 'datetime': '2018-10-12 20:01:20.224160', 'mgs': 0, 'depth': 1.004, 'time': 3.59, 'pitch': -2.96, 'roll': 1.22}
{'lipoC2': 8.01, 'temp': 28.63, 'lipoC3S3': 12.38, 'rot1': 1, 'rot0': 1, 'rot3': 0, 'rot2': 0, 'state': 'normal', 'yaw': -3.31, 'datetime': '2018-10-12 20:01:20.237072', 'mgs': 0, 'depth': 1.462, 'time': 3.68, 'pitch': -3.08, 'roll': 1.57}
{'lipoC2': 8.0, 'temp': 28.63, 'lipoC3S3': 12.39, 'rot1': 2, 'rot0': 2, 'rot3': 0, 'rot2': 0, 'state': 'normal', 'yaw': -3.5, 'datetime': '2018-10-12 20:01:20.256234', 'mgs': 0, 'depth': 1.996, 'time': 3.78, 'pitch': -2.88, 'roll': 2.02}
{'lipoC2': 8.0, 'temp': 28.63, 'lipoC3S3': 12.25, 'rot1': 3, 'rot0': 2, 'rot3': 0, 'rot2': 0, 'state': 'normal', 'yaw': -3.56, 'datetime': '2018-10-12 20:01:20.353472', 'mgs': 0, 'depth': 1.004, 'time': 3.88, 'pitch': -2.44, 'roll': 2.15}
{'lipoC2': 8.0, 'temp': 28.56, 'lipoC3S3': 12.35, 'rot1': 4, 'rot0': 3, 'rot3': 1, 'rot2': 1, 'state': 'normal', 'yaw': -3.51, 'datetime': '2018-10-12 20:01:20.451449', 'mgs': 0, 'depth': 1.309, 'time': 3.97, 'pitch': -1.91, 'roll': 2.39}
{'lipoC2': 8.0, 'temp': 28.56, 'lipoC3S3': 12.35, 'rot1': 5, 'rot0': 4, 'rot3': 1, 'rot2': 1, 'state': 'normal', 'yaw': -3.53, 'datetime': '2018-10-12 20:01:20.548097', 'mgs': 0, 'depth': 1.538, 'time': 4.07, 'pitch': -1.49, 'roll': 2.95}
{'lipoC2': 8.0, 'temp': 28.63, 'lipoC3S3': 12.35, 'rot1': 6, 'rot0': 5, 'rot3': 2, 'rot2': 2, 'state': 'normal', 'yaw': -3.69, 'datetime': '2018-10-12 20:01:20.644779', 'mgs': 0, 'depth': 1.004, 'time': 4.17, 'pitch': -0.78, 'roll': 3.61}
{'lipoC2': 8.01, 'temp': 28.63, 'lipoC3S3': 12.25, 'rot1': 7, 'rot0': 6, 'rot3': 2, 'rot2': 2, 'state': 'normal', 'yaw': -3.81, 'datetime': '2018-10-12 20:01:20.743284', 'mgs': 0, 'depth': 0.928, 'time': 4.27, 'pitch': 0.01, 'roll': 3.99}
{'lipoC2': 8.02, 'temp': 28.56, 'lipoC3S3': 12.29, 'rot1': 8, 'rot0': 7, 'rot3': 2, 'rot2': 3, 'state': 'normal', 'yaw': -3.88, 'datetime': '2018-10-12 20:01:20.839904', 'mgs': 0, 'depth': 0.851, 'time': 4.36, 'pitch': 1.08, 'roll': 4.07}
{'lipoC2': 8.01, 'temp': 28.56, 'lipoC3S3': 12.35, 'rot1': 9, 'rot0': 8, 'rot3': 3, 'rot2': 3, 'state': 'normal', 'yaw': -3.95, 'datetime': '2018-10-12 20:01:20.939278', 'mgs': 0, 'depth': 1.309, 'time': 4.46, 'pitch': 2.23, 'roll': 3.87}
{'lipoC2': 8.0, 'temp': 28.56, 'lipoC3S3': 12.37, 'rot1': 11, 'rot0': 8, 'rot3': 3, 'rot2': 3, 'state': 'normal', 'yaw': -3.99, 'datetime': '2018-10-12 20:01:21.038063', 'mgs': 0, 'depth': 1.08, 'time': 4.56, 'pitch': 3.21, 'roll': 3.69}
{'lipoC2': 8.0, 'temp': 28.63, 'lipoC3S3': 12.38, 'rot1': 12, 'rot0': 9, 'rot3': 3, 'rot2': 3, 'state': 'normal', 'yaw': -3.96, 'datetime': '2018-10-12 20:01:21.134965', 'mgs': 0, 'depth': 0.928, 'time': 4.66, 'pitch': 4.1, 'roll': 3.71}
{'lipoC2': 8.01, 'temp': 28.63, 'lipoC3S3': 12.35, 'rot1': 13, 'rot0': 10, 'rot3': 3, 'rot2': 3, 'state': 'normal', 'yaw': -3.92, 'datetime': '2018-10-12 20:01:21.231969', 'mgs': 0, 'depth': 0.928, 'time': 4.75, 'pitch': 4.61, 'roll': 3.97}
{'lipoC2': 8.0, 'temp': 28.63, 'lipoC3S3': 12.37, 'rot1': 14, 'rot0': 11, 'rot3': 3, 'rot2': 3, 'state': 'normal', 'yaw': -3.94, 'datetime': '2018-10-12 20:01:21.328956', 'mgs': 0, 'depth': 1.004, 'time': 4.85, 'pitch': 4.78, 'roll': 4.19}
{'lipoC2': 8.0, 'temp': 28.63, 'lipoC3S3': 12.37, 'rot1': 15, 'rot0': 12, 'rot3': 3, 'rot2': 3, 'state': 'normal', 'yaw': -4.02, 'datetime': '2018-10-12 20:01:21.427217', 'mgs': 0, 'depth': 1.462, 'time': 4.95, 'pitch': 4.77, 'roll': 4.24}
{'lipoC2': 8.0, 'temp': 28.63, 'lipoC3S3': 12.34, 'rot1': 16, 'rot0': 13, 'rot3': 3, 'rot2': 3, 'state': 'normal', 'yaw': -4.02, 'datetime': '2018-10-12 20:01:21.524297', 'mgs': 0, 'depth': 0.928, 'time': 5.04, 'pitch': 4.65, 'roll': 4.27}
{'lipoC2': 8.01, 'temp': 28.63, 'lipoC3S3': 12.31, 'rot1': 17, 'rot0': 14, 'rot3': 3, 'rot2': 4, 'state': 'normal', 'yaw': -3.98, 'datetime': '2018-10-12 20:01:21.621300', 'mgs': 0, 'depth': 1.691, 'time': 5.14, 'pitch': 4.46, 'roll': 4.62}
{'lipoC2': 8.0, 'temp': 28.63, 'lipoC3S3': 12.35, 'rot1': 18, 'rot0': 15, 'rot3': 4, 'rot2': 4, 'state': 'normal', 'yaw': -3.88, 'datetime': '2018-10-12 20:01:21.718263', 'mgs': 0, 'depth': 1.08, 'time': 5.24, 'pitch': 4.3, 'roll': 5.24}
{'lipoC2': 8.01, 'temp': 28.63, 'lipoC3S3': 12.35, 'rot1': 19, 'rot0': 16, 'rot3': 4, 'rot2': 5, 'state': 'normal', 'yaw': -3.74, 'datetime': '2018-10-12 20:01:21.815306', 'mgs': 0, 'depth': 1.004, 'time': 5.34, 'pitch': 3.99, 'roll': 6.03}
{'lipoC2': 8.0, 'temp': 28.63, 'lipoC3S3': 12.38, 'rot1': 20, 'rot0': 16, 'rot3': 4, 'rot2': 5, 'state': 'normal', 'yaw': -3.67, 'datetime': '2018-10-12 20:01:21.912370', 'mgs': 0, 'depth': 1.08, 'time': 5.43, 'pitch': 3.7, 'roll': 6.15}
{'lipoC2': 8.0, 'temp': 28.63, 'lipoC3S3': 12.37, 'rot1': 21, 'rot0': 17, 'rot3': 4, 'rot2': 5, 'state': 'normal', 'yaw': -3.51, 'datetime': '2018-10-12 20:01:22.010712', 'mgs': 0, 'depth': 1.233, 'time': 5.53, 'pitch': 3.41, 'roll': 5.85}
{'lipoC2': 8.0, 'temp': 28.56, 'lipoC3S3': 12.37, 'rot1': 22, 'rot0': 18, 'rot3': 4, 'rot2': 5, 'state': 'normal', 'yaw': -3.23, 'datetime': '2018-10-12 20:01:22.109179', 'mgs': 0, 'depth': 1.996, 'time': 5.63, 'pitch': 3.08, 'roll': 5.58}
{'lipoC2': 8.0, 'temp': 28.56, 'lipoC3S3': 12.31, 'rot1': 23, 'rot0': 19, 'rot3': 4, 'rot2': 5, 'state': 'normal', 'yaw': -2.89, 'datetime': '2018-10-12 20:01:22.206157', 'mgs': 0, 'depth': 1.157, 'time': 5.73, 'pitch': 2.74, 'roll': 5.66}
{'lipoC2': 8.0, 'temp': 28.63, 'lipoC3S3': 12.35, 'rot1': 24, 'rot0': 20, 'rot3': 4, 'rot2': 5, 'state': 'normal', 'yaw': -2.52, 'datetime': '2018-10-12 20:01:22.303180', 'mgs': 0, 'depth': 2.682, 'time': 5.82, 'pitch': 2.32, 'roll': 5.88}
{'lipoC2': 8.01, 'temp': 28.63, 'lipoC3S3': 12.22, 'rot1': 26, 'rot0': 21, 'rot3': 4, 'rot2': 5, 'state': 'normal', 'yaw': -2.28, 'datetime': '2018-10-12 20:01:22.401493', 'mgs': 0, 'depth': 1.157, 'time': 5.92, 'pitch': 1.84, 'roll': 6.13}
{'lipoC2': 8.0, 'temp': 28.63, 'lipoC3S3': 12.3, 'rot1': 27, 'rot0': 22, 'rot3': 4, 'rot2': 5, 'state': 'normal', 'yaw': -2.2, 'datetime': '2018-10-12 20:01:22.499819', 'mgs': 0, 'depth': 1.233, 'time': 6.02, 'pitch': 1.11, 'roll': 6.57}
{'lipoC2': 8.0, 'temp': 28.69, 'lipoC3S3': 12.34, 'rot1': 28, 'rot0': 23, 'rot3': 5, 'rot2': 6, 'state': 'normal', 'yaw': -2.32, 'datetime': '2018-10-12 20:01:22.597082', 'mgs': 0, 'depth': 1.843, 'time': 6.12, 'pitch': 0.41, 'roll': 7.4}
{'lipoC2': 8.02, 'temp': 28.69, 'lipoC3S3': 12.29, 'rot1': 29, 'rot0': 23, 'rot3': 5, 'rot2': 7, 'state': 'normal', 'yaw': -3.08, 'datetime': '2018-10-12 20:01:22.694136', 'mgs': 0, 'depth': 1.233, 'time': 6.21, 'pitch': -0.32, 'roll': 7.95}
{'lipoC2': 8.01, 'temp': 28.63, 'lipoC3S3': 12.31, 'rot1': 30, 'rot0': 25, 'rot3': 6, 'rot2': 7, 'state': 'normal', 'yaw': -3.6, 'datetime': '2018-10-12 20:01:22.791749', 'mgs': 0, 'depth': 2.225, 'time': 6.31, 'pitch': -0.94, 'roll': 8.0}
{'lipoC2': 8.0, 'temp': 28.63, 'lipoC3S3': 12.35, 'rot1': 31, 'rot0': 25, 'rot3': 6, 'rot2': 8, 'state': 'normal', 'yaw': -3.67, 'datetime': '2018-10-12 20:01:22.888769', 'mgs': 0, 'depth': 1.157, 'time': 6.41, 'pitch': -1.42, 'roll': 7.65}
{'lipoC2': 8.01, 'temp': 28.63, 'lipoC3S3': 12.35, 'rot1': 32, 'rot0': 26, 'rot3': 6, 'rot2': 8, 'state': 'normal', 'yaw': -3.32, 'datetime': '2018-10-12 20:01:22.985802', 'mgs': 0, 'depth': 1.691, 'time': 6.51, 'pitch': -1.83, 'roll': 7.23}
{'lipoC2': 8.0, 'temp': 28.63, 'lipoC3S3': 12.27, 'rot1': 33, 'rot0': 27, 'rot3': 6, 'rot2': 8, 'state': 'normal', 'yaw': -2.73, 'datetime': '2018-10-12 20:01:23.083017', 'mgs': 0, 'depth': 1.233, 'time': 6.6, 'pitch': -2.2, 'roll': 7.03}
{'lipoC2': 8.0, 'temp': 28.63, 'lipoC3S3': 12.35, 'rot1': 34, 'rot0': 28, 'rot3': 6, 'rot2': 8, 'state': 'normal', 'yaw': -1.82, 'datetime': '2018-10-12 20:01:23.180049', 'mgs': 0, 'depth': 1.996, 'time': 6.7, 'pitch': -2.58, 'roll': 7.08}
{'lipoC2': 8.0, 'temp': 28.63, 'lipoC3S3': 12.27, 'rot1': 35, 'rot0': 29, 'rot3': 8, 'rot2': 8, 'state': 'normal', 'yaw': -0.71, 'datetime': '2018-10-12 20:01:23.277083', 'mgs': 0, 'depth': 1.08, 'time': 6.8, 'pitch': -2.82, 'roll': 7.19}
{'lipoC2': 8.01, 'temp': 28.63, 'lipoC3S3': 12.3, 'rot1': 36, 'rot0': 30, 'rot3': 8, 'rot2': 9, 'state': 'normal', 'yaw': 0.46, 'datetime': '2018-10-12 20:01:23.374147', 'mgs': 0, 'depth': 2.454, 'time': 6.89, 'pitch': -2.9, 'roll': 7.01}
{'lipoC2': 8.0, 'temp': 28.63, 'lipoC3S3': 12.34, 'rot1': 37, 'rot0': 31, 'rot3': 9, 'rot2': 9, 'state': 'normal', 'yaw': 1.29, 'datetime': '2018-10-12 20:01:23.471007', 'mgs': 0, 'depth': 1.157, 'time': 6.99, 'pitch': -2.73, 'roll': 6.88}
{'lipoC2': 8.02, 'temp': 28.63, 'lipoC3S3': 12.34, 'rot1': 38, 'rot0': 32, 'rot3': 9, 'rot2': 10, 'state': 'normal', 'yaw': 2.1, 'datetime': '2018-10-12 20:01:23.568327', 'mgs': 0, 'depth': 1.843, 'time': 7.09, 'pitch': -2.22, 'roll': 7.18}
{'lipoC2': 8.0, 'temp': 28.63, 'lipoC3S3': 12.27, 'rot1': 39, 'rot0': 33, 'rot3': 9, 'rot2': 10, 'state': 'normal', 'yaw': 2.82, 'datetime': '2018-10-12 20:01:23.665490', 'mgs': 0, 'depth': 1.233, 'time': 7.19, 'pitch': -1.73, 'roll': 7.99}
{'lipoC2': 8.0, 'temp': 28.63, 'lipoC3S3': 12.29, 'rot1': 40, 'rot0': 34, 'rot3': 9, 'rot2': 10, 'state': 'normal', 'yaw': 3.14, 'datetime': '2018-10-12 20:01:23.764253', 'mgs': 0, 'depth': 1.233, 'time': 7.28, 'pitch': -1.49, 'roll': 8.72}
{'lipoC2': 8.0, 'temp': 28.63, 'lipoC3S3': 12.25, 'rot1': 41, 'rot0': 35, 'rot3': 9, 'rot2': 10, 'state': 'normal', 'yaw': 3.15, 'datetime': '2018-10-12 20:01:23.862543', 'mgs': 0, 'depth': 1.233, 'time': 7.38, 'pitch': -1.35, 'roll': 8.99}
{'lipoC2': 8.0, 'temp': 28.63, 'lipoC3S3': 12.26, 'rot1': 42, 'rot0': 37, 'rot3': 9, 'rot2': 10, 'state': 'normal', 'yaw': 2.96, 'datetime': '2018-10-12 20:01:23.960290', 'mgs': 0, 'depth': 1.309, 'time': 7.48, 'pitch': -1.34, 'roll': 8.76}
{'lipoC2': 8.0, 'temp': 28.63, 'lipoC3S3': 12.35, 'rot1': 43, 'rot0': 38, 'rot3': 9, 'rot2': 10, 'state': 'normal', 'yaw': 2.59, 'datetime': '2018-10-12 20:01:24.057220', 'mgs': 0, 'depth': 1.309, 'time': 7.58, 'pitch': -1.36, 'roll': 8.55}
{'lipoC2': 8.0, 'temp': 28.63, 'lipoC3S3': 12.3, 'rot1': 43, 'rot0': 39, 'rot3': 9, 'rot2': 10, 'state': 'normal', 'yaw': 2.12, 'datetime': '2018-10-12 20:01:24.155384', 'mgs': 0, 'depth': 1.309, 'time': 7.68, 'pitch': -1.26, 'roll': 8.74}
{'lipoC2': 8.0, 'temp': 28.56, 'lipoC3S3': 12.3, 'rot1': 44, 'rot0': 40, 'rot3': 9, 'rot2': 10, 'state': 'normal', 'yaw': 1.4, 'datetime': '2018-10-12 20:01:24.253584', 'mgs': 0, 'depth': 1.309, 'time': 7.78, 'pitch': -0.95, 'roll': 9.08}
{'lipoC2': 8.0, 'temp': 28.56, 'lipoC3S3': 12.35, 'rot1': 45, 'rot0': 41, 'rot3': 9, 'rot2': 10, 'state': 'normal', 'yaw': 0.52, 'datetime': '2018-10-12 20:01:24.350763', 'mgs': 0, 'depth': 1.309, 'time': 7.87, 'pitch': -0.49, 'roll': 9.16}
{'lipoC2': 8.01, 'temp': 28.56, 'lipoC3S3': 12.34, 'rot1': 46, 'rot0': 42, 'rot3': 9, 'rot2': 10, 'state': 'normal', 'yaw': -0.53, 'datetime': '2018-10-12 20:01:24.447964', 'mgs': 0, 'depth': 1.614, 'time': 7.97, 'pitch': -0.07, 'roll': 9.12}
{'lipoC2': 8.0, 'temp': 28.63, 'lipoC3S3': 12.34, 'rot1': 47, 'rot0': 44, 'rot3': 9, 'rot2': 10, 'state': 'normal', 'yaw': -1.6, 'datetime': '2018-10-12 20:01:24.545849', 'mgs': 0, 'depth': 1.233, 'time': 8.07, 'pitch': 0.12, 'roll': 9.15}
{'lipoC2': 8.02, 'temp': 28.63, 'lipoC3S3': 12.31, 'rot1': 48, 'rot0': 45, 'rot3': 9, 'rot2': 10, 'state': 'normal', 'yaw': -2.71, 'datetime': '2018-10-12 20:01:24.642983', 'mgs': 0, 'depth': 1.309, 'time': 8.16, 'pitch': 0.28, 'roll': 9.2}
{'lipoC2': 8.0, 'temp': 28.63, 'lipoC3S3': 12.35, 'rot1': 49, 'rot0': 46, 'rot3': 9, 'rot2': 10, 'state': 'normal', 'yaw': -3.63, 'datetime': '2018-10-12 20:01:24.740121', 'mgs': 0, 'depth': 1.309, 'time': 8.26, 'pitch': 0.43, 'roll': 9.18}
{'lipoC2': 8.01, 'temp': 28.63, 'lipoC3S3': 12.35, 'rot1': 50, 'rot0': 47, 'rot3': 9, 'rot2': 10, 'state': 'normal', 'yaw': -4.38, 'datetime': '2018-10-12 20:01:24.837350', 'mgs': 0, 'depth': 2.148, 'time': 8.36, 'pitch': 0.55, 'roll': 8.94}
{'lipoC2': 8.01, 'temp': 28.63, 'lipoC3S3': 12.37, 'rot1': 51, 'rot0': 48, 'rot3': 9, 'rot2': 10, 'state': 'normal', 'yaw': -4.68, 'datetime': '2018-10-12 20:01:24.934670', 'mgs': 0, 'depth': 1.309, 'time': 8.46, 'pitch': 0.59, 'roll': 8.53}
{'lipoC2': 8.0, 'temp': 28.63, 'lipoC3S3': 12.35, 'rot1': 52, 'rot0': 49, 'rot3': 9, 'rot2': 10, 'state': 'normal', 'yaw': -4.6, 'datetime': '2018-10-12 20:01:25.031779', 'mgs': 0, 'depth': 1.385, 'time': 8.55, 'pitch': 0.54, 'roll': 8.14}
{'lipoC2': 8.0, 'temp': 28.63, 'lipoC3S3': 12.35, 'rot1': 53, 'rot0': 50, 'rot3': 9, 'rot2': 10, 'state': 'normal', 'yaw': -4.21, 'datetime': '2018-10-12 20:01:25.129008', 'mgs': 0, 'depth': 0.851, 'time': 8.65, 'pitch': 0.46, 'roll': 8.03}
{'lipoC2': 8.01, 'temp': 28.63, 'lipoC3S3': 12.35, 'rot1': 55, 'rot0': 51, 'rot3': 9, 'rot2': 10, 'state': 'normal', 'yaw': -3.69, 'datetime': '2018-10-12 20:01:25.226347', 'mgs': 0, 'depth': 1.538, 'time': 8.75, 'pitch': 0.36, 'roll': 8.19}
{'lipoC2': 8.0, 'temp': 28.63, 'lipoC3S3': 12.3, 'rot1': 56, 'rot0': 51, 'rot3': 9, 'rot2': 10, 'state': 'normal', 'yaw': -2.99, 'datetime': '2018-10-12 20:01:25.323575', 'mgs': 0, 'depth': 1.309, 'time': 8.85, 'pitch': 0.08, 'roll': 8.55}
{'lipoC2': 8.01, 'temp': 28.63, 'lipoC3S3': 12.33, 'rot1': 57, 'rot0': 52, 'rot3': 9, 'rot2': 10, 'state': 'normal', 'yaw': -2.25, 'datetime': '2018-10-12 20:01:25.420917', 'mgs': 0, 'depth': 1.92, 'time': 8.94, 'pitch': -0.34, 'roll': 8.85}
{'lipoC2': 8.02, 'temp': 28.63, 'lipoC3S3': 12.27, 'rot1': 58, 'rot0': 53, 'rot3': 10, 'rot2': 11, 'state': 'normal', 'yaw': -1.37, 'datetime': '2018-10-12 20:01:25.518227', 'mgs': 0, 'depth': 1.309, 'time': 9.04, 'pitch': -0.64, 'roll': 8.66}
{'lipoC2': 8.0, 'temp': 28.63, 'lipoC3S3': 12.35, 'rot1': 59, 'rot0': 54, 'rot3': 10, 'rot2': 11, 'state': 'normal', 'yaw': -0.45, 'datetime': '2018-10-12 20:01:25.616845', 'mgs': 0, 'depth': 2.606, 'time': 9.14, 'pitch': -0.7, 'roll': 8.19}
{'lipoC2': 8.0, 'temp': 28.63, 'lipoC3S3': 12.34, 'rot1': 60, 'rot0': 55, 'rot3': 10, 'rot2': 11, 'state': 'normal', 'yaw': 0.7, 'datetime': '2018-10-12 20:01:25.715670', 'mgs': 0, 'depth': 1.385, 'time': 9.24, 'pitch': -0.46, 'roll': 7.71}
{'lipoC2': 8.0, 'temp': 28.63, 'lipoC3S3': 12.34, 'rot1': 61, 'rot0': 56, 'rot3': 10, 'rot2': 11, 'state': 'normal', 'yaw': 1.7, 'datetime': '2018-10-12 20:01:25.812941', 'mgs': 0, 'depth': 2.988, 'time': 9.34, 'pitch': -0.14, 'roll': 7.73}
{'lipoC2': 8.02, 'temp': 28.63, 'lipoC3S3': 12.23, 'rot1': 62, 'rot0': 58, 'rot3': 10, 'rot2': 12, 'state': 'normal', 'yaw': 2.43, 'datetime': '2018-10-12 20:01:25.910406', 'mgs': 0, 'depth': 2.148, 'time': 9.43, 'pitch': 0.03, 'roll': 7.94}
{'lipoC2': 8.0, 'temp': 28.63, 'lipoC3S3': 12.34, 'rot1': 63, 'rot0': 59, 'rot3': 11, 'rot2': 12, 'state': 'normal', 'yaw': 2.89, 'datetime': '2018-10-12 20:01:26.008472', 'mgs': 0, 'depth': 1.385, 'time': 9.53, 'pitch': 0.03, 'roll': 8.03}
{'lipoC2': 8.0, 'temp': 28.63, 'lipoC3S3': 12.25, 'rot1': 64, 'rot0': 60, 'rot3': 11, 'rot2': 13, 'state': 'normal', 'yaw': 3.0, 'datetime': '2018-10-12 20:01:26.107137', 'mgs': 0, 'depth': 1.309, 'time': 9.63, 'pitch': 0.01, 'roll': 8.06}
{'lipoC2': 8.01, 'temp': 28.63, 'lipoC3S3': 12.34, 'rot1': 65, 'rot0': 61, 'rot3': 12, 'rot2': 13, 'state': 'normal', 'yaw': 2.78, 'datetime': '2018-10-12 20:01:26.205949', 'mgs': 0, 'depth': 1.996, 'time': 9.73, 'pitch': 0.04, 'roll': 8.14}
{'lipoC2': 8.01, 'temp': 28.63, 'lipoC3S3': 12.33, 'rot1': 66, 'rot0': 62, 'rot3': 12, 'rot2': 13, 'state': 'normal', 'yaw': 2.35, 'datetime': '2018-10-12 20:01:26.303277', 'mgs': 0, 'depth': 1.309, 'time': 9.83, 'pitch': 0.11, 'roll': 8.35}
{'lipoC2': 8.0, 'temp': 28.63, 'lipoC3S3': 12.3, 'rot1': 67, 'rot0': 63, 'rot3': 12, 'rot2': 13, 'state': 'normal', 'yaw': 1.72, 'datetime': '2018-10-12 20:01:26.400741', 'mgs': 0, 'depth': 1.309, 'time': 9.92, 'pitch': 0.13, 'roll': 8.61}
{'lipoC2': 8.0, 'temp': 28.56, 'lipoC3S3': 12.35, 'rot1': 67, 'rot0': 65, 'rot3': 12, 'rot2': 13, 'state': 'normal', 'yaw': 0.98, 'datetime': '2018-10-12 20:01:26.497047', 'mgs': 0, 'depth': 1.309, 'time': 10.02, 'pitch': 0.04, 'roll': 8.76}
{'lipoC2': 8.0, 'temp': 28.56, 'lipoC3S3': 12.34, 'rot1': 68, 'rot0': 66, 'rot3': 12, 'rot2': 13, 'state': 'normal', 'yaw': -0.06, 'datetime': '2018-10-12 20:01:26.594512', 'mgs': 0, 'depth': 1.462, 'time': 10.12, 'pitch': -0.16, 'roll': 8.5}
{'lipoC2': 8.0, 'temp': 28.63, 'lipoC3S3': 12.33, 'rot1': 69, 'rot0': 67, 'rot3': 12, 'rot2': 13, 'state': 'normal', 'yaw': -1.05, 'datetime': '2018-10-12 20:01:26.691734', 'mgs': 0, 'depth': 2.606, 'time': 10.22, 'pitch': -0.45, 'roll': 7.89}
{'lipoC2': 8.02, 'temp': 28.63, 'lipoC3S3': 12.22, 'rot1': 70, 'rot0': 69, 'rot3': 12, 'rot2': 13, 'state': 'normal', 'yaw': -1.88, 'datetime': '2018-10-12 20:01:26.794331', 'mgs': 0, 'depth': 1.843, 'time': 10.31, 'pitch': -0.73, 'roll': 7.49}
{'lipoC2': 8.01, 'temp': 28.63, 'lipoC3S3': 12.27, 'rot1': 71, 'rot0': 70, 'rot3': 12, 'rot2': 14, 'state': 'normal', 'yaw': -2.51, 'datetime': '2018-10-12 20:01:26.891492', 'mgs': 0, 'depth': 1.309, 'time': 10.41, 'pitch': -0.87, 'roll': 7.81}
{'lipoC2': 8.0, 'temp': 28.63, 'lipoC3S3': 12.23, 'rot1': 72, 'rot0': 70, 'rot3': 13, 'rot2': 14, 'state': 'normal', 'yaw': -2.88, 'datetime': '2018-10-12 20:01:26.989120', 'mgs': 0, 'depth': 1.309, 'time': 10.51, 'pitch': -0.88, 'roll': 8.67}
{'lipoC2': 8.0, 'temp': 28.63, 'lipoC3S3': 12.37, 'rot1': 74, 'rot0': 71, 'rot3': 13, 'rot2': 15, 'state': 'normal', 'yaw': -2.85, 'datetime': '2018-10-12 20:01:27.086421', 'mgs': 0, 'depth': 1.309, 'time': 10.61, 'pitch': -0.96, 'roll': 9.42}
{'lipoC2': 8.0, 'temp': 28.63, 'lipoC3S3': 12.35, 'rot1': 75, 'rot0': 72, 'rot3': 13, 'rot2': 15, 'state': 'normal', 'yaw': -2.46, 'datetime': '2018-10-12 20:01:27.183696', 'mgs': 0, 'depth': 1.309, 'time': 10.7, 'pitch': -1.22, 'roll': 9.7}
{'lipoC2': 8.0, 'temp': 28.63, 'lipoC3S3': 12.35, 'rot1': 76, 'rot0': 73, 'rot3': 13, 'rot2': 15, 'state': 'normal', 'yaw': -1.89, 'datetime': '2018-10-12 20:01:27.281098', 'mgs': 0, 'depth': 1.385, 'time': 10.8, 'pitch': -1.51, 'roll': 9.56}
{'lipoC2': 8.01, 'temp': 28.63, 'lipoC3S3': 12.31, 'rot1': 77, 'rot0': 74, 'rot3': 13, 'rot2': 15, 'state': 'normal', 'yaw': -1.05, 'datetime': '2018-10-12 20:01:27.378562', 'mgs': 0, 'depth': 2.988, 'time': 10.9, 'pitch': -1.69, 'roll': 9.3}
{'lipoC2': 8.01, 'temp': 28.63, 'lipoC3S3': 12.31, 'rot1': 78, 'rot0': 74, 'rot3': 14, 'rot2': 16, 'state': 'normal', 'yaw': -0.07, 'datetime': '2018-10-12 20:01:27.475958', 'mgs': 0, 'depth': 1.767, 'time': 11.0, 'pitch': -1.72, 'roll': 9.12}
{'lipoC2': 8.0, 'temp': 28.63, 'lipoC3S3': 12.23, 'rot1': 79, 'rot0': 76, 'rot3': 14, 'rot2': 16, 'state': 'normal', 'yaw': 0.87, 'datetime': '2018-10-12 20:01:27.574184', 'mgs': 0, 'depth': 1.309, 'time': 11.1, 'pitch': -1.71, 'roll': 9.08}
{'lipoC2': 8.01, 'temp': 28.63, 'lipoC3S3': 12.33, 'rot1': 80, 'rot0': 76, 'rot3': 15, 'rot2': 16, 'state': 'normal', 'yaw': 1.98, 'datetime': '2018-10-12 20:01:27.672841', 'mgs': 0, 'depth': 1.309, 'time': 11.19, 'pitch': -1.66, 'roll': 9.12}
{'lipoC2': 8.0, 'temp': 28.63, 'lipoC3S3': 12.35, 'rot1': 81, 'rot0': 77, 'rot3': 15, 'rot2': 16, 'state': 'normal', 'yaw': 3.2, 'datetime': '2018-10-12 20:01:27.770976', 'mgs': 0, 'depth': 1.309, 'time': 11.29, 'pitch': -1.51, 'roll': 9.12}
{'lipoC2': 8.0, 'temp': 28.63, 'lipoC3S3': 12.34, 'rot1': 82, 'rot0': 78, 'rot3': 15, 'rot2': 16, 'state': 'normal', 'yaw': 4.08, 'datetime': '2018-10-12 20:01:27.868398', 'mgs': 0, 'depth': 1.309, 'time': 11.39, 'pitch': -1.27, 'roll': 8.91}
{'lipoC2': 8.0, 'temp': 28.63, 'lipoC3S3': 12.35, 'rot1': 83, 'rot0': 80, 'rot3': 15, 'rot2': 16, 'state': 'normal', 'yaw': 4.46, 'datetime': '2018-10-12 20:01:27.965824', 'mgs': 0, 'depth': 2.377, 'time': 11.49, 'pitch': -1.0, 'roll': 8.68}
{'lipoC2': 8.0, 'temp': 28.63, 'lipoC3S3': 12.34, 'rot1': 84, 'rot0': 81, 'rot3': 15, 'rot2': 16, 'state': 'normal', 'yaw': 4.4, 'datetime': '2018-10-12 20:01:28.064488', 'mgs': 0, 'depth': 1.385, 'time': 11.59, 'pitch': -0.77, 'roll': 8.67}
{'lipoC2': 8.0, 'temp': 28.63, 'lipoC3S3': 12.35, 'rot1': 85, 'rot0': 82, 'rot3': 15, 'rot2': 16, 'state': 'normal', 'yaw': 3.97, 'datetime': '2018-10-12 20:01:28.163142', 'mgs': 0, 'depth': 1.309, 'time': 11.69, 'pitch': -0.47, 'roll': 8.78}
{'lipoC2': 8.0, 'temp': 28.63, 'lipoC3S3': 12.34, 'rot1': 85, 'rot0': 83, 'rot3': 15, 'rot2': 16, 'state': 'normal', 'yaw': 3.27, 'datetime': '2018-10-12 20:01:28.260628', 'mgs': 0, 'depth': 1.309, 'time': 11.78, 'pitch': -0.29, 'roll': 8.44}
{'lipoC2': 8.0, 'temp': 28.63, 'lipoC3S3': 12.34, 'rot1': 86, 'rot0': 84, 'rot3': 15, 'rot2': 16, 'state': 'normal', 'yaw': 2.38, 'datetime': '2018-10-12 20:01:28.358044', 'mgs': 0, 'depth': 1.385, 'time': 11.88, 'pitch': -0.23, 'roll': 8.04}
{'lipoC2': 8.0, 'temp': 28.63, 'lipoC3S3': 12.35, 'rot1': 87, 'rot0': 85, 'rot3': 15, 'rot2': 16, 'state': 'normal', 'yaw': 1.44, 'datetime': '2018-10-12 20:01:28.455996', 'mgs': 0, 'depth': 1.309, 'time': 11.98, 'pitch': -0.22, 'roll': 7.98}
{'lipoC2': 8.0, 'temp': 28.63, 'lipoC3S3': 12.35, 'rot1': 88, 'rot0': 86, 'rot3': 15, 'rot2': 16, 'state': 'normal', 'yaw': 0.34, 'datetime': '2018-10-12 20:01:28.553255', 'mgs': 0, 'depth': 1.385, 'time': 12.08, 'pitch': -0.1, 'roll': 8.11}
{'lipoC2': 8.0, 'temp': 28.63, 'lipoC3S3': 12.34, 'rot1': 89, 'rot0': 88, 'rot3': 15, 'rot2': 16, 'state': 'normal', 'yaw': -0.83, 'datetime': '2018-10-12 20:01:28.650547', 'mgs': 0, 'depth': 1.462, 'time': 12.17, 'pitch': 0.15, 'roll': 8.1}
{'lipoC2': 8.0, 'temp': 28.63, 'lipoC3S3': 12.33, 'rot1': 90, 'rot0': 89, 'rot3': 15, 'rot2': 16, 'state': 'normal', 'yaw': -1.91, 'datetime': '2018-10-12 20:01:28.747870', 'mgs': 0, 'depth': 2.454, 'time': 12.27, 'pitch': 0.4, 'roll': 8.17}
{'lipoC2': 8.02, 'temp': 28.63, 'lipoC3S3': 12.22, 'rot1': 92, 'rot0': 90, 'rot3': 15, 'rot2': 17, 'state': 'normal', 'yaw': -2.72, 'datetime': '2018-10-12 20:01:28.846094', 'mgs': 0, 'depth': 1.385, 'time': 12.37, 'pitch': 0.52, 'roll': 8.48}
{'lipoC2': 8.0, 'temp': 28.63, 'lipoC3S3': 12.21, 'rot1': 93, 'rot0': 91, 'rot3': 15, 'rot2': 17, 'state': 'normal', 'yaw': -3.42, 'datetime': '2018-10-12 20:01:28.942785', 'mgs': 0, 'depth': 1.385, 'time': 12.47, 'pitch': 0.46, 'roll': 8.84}
{'lipoC2': 8.0, 'temp': 28.63, 'lipoC3S3': 12.26, 'rot1': 94, 'rot0': 92, 'rot3': 16, 'rot2': 18, 'state': 'normal', 'yaw': -3.79, 'datetime': '2018-10-12 20:01:29.040217', 'mgs': 0, 'depth': 1.385, 'time': 12.56, 'pitch': 0.27, 'roll': 9.05}
{'lipoC2': 8.0, 'temp': 28.63, 'lipoC3S3': 12.33, 'rot1': 95, 'rot0': 93, 'rot3': 16, 'rot2': 18, 'state': 'normal', 'yaw': -3.81, 'datetime': '2018-10-12 20:01:29.137620', 'mgs': 0, 'depth': 1.385, 'time': 12.66, 'pitch': 0.05, 'roll': 9.33}
{'lipoC2': 8.0, 'temp': 28.63, 'lipoC3S3': 12.33, 'rot1': 96, 'rot0': 94, 'rot3': 17, 'rot2': 19, 'state': 'normal', 'yaw': -3.55, 'datetime': '2018-10-12 20:01:29.235086', 'mgs': 0, 'depth': 1.462, 'time': 12.76, 'pitch': -0.06, 'roll': 9.71}
{'lipoC2': 8.0, 'temp': 28.63, 'lipoC3S3': 12.33, 'rot1': 97, 'rot0': 95, 'rot3': 17, 'rot2': 19, 'state': 'normal', 'yaw': -3.04, 'datetime': '2018-10-12 20:01:29.332494', 'mgs': 0, 'depth': 1.843, 'time': 12.86, 'pitch': -0.16, 'roll': 9.99}
{'lipoC2': 8.01, 'temp': 28.63, 'lipoC3S3': 12.3, 'rot1': 98, 'rot0': 95, 'rot3': 18, 'rot2': 20, 'state': 'normal', 'yaw': -2.46, 'datetime': '2018-10-12 20:01:29.429839', 'mgs': 0, 'depth': 2.835, 'time': 12.95, 'pitch': -0.26, 'roll': 9.97}
{'lipoC2': 8.0, 'temp': 28.63, 'lipoC3S3': 12.3, 'rot1': 99, 'rot0': 96, 'rot3': 18, 'rot2': 20, 'state': 'normal', 'yaw': -1.88, 'datetime': '2018-10-12 20:01:29.527924', 'mgs': 0, 'depth': 1.385, 'time': 13.05, 'pitch': -0.38, 'roll': 9.81}
{'lipoC2': 8.01, 'temp': 28.63, 'lipoC3S3': 12.21, 'rot1': 100, 'rot0': 97, 'rot3': 18, 'rot2': 21, 'state': 'normal', 'yaw': -1.12, 'datetime': '2018-10-12 20:01:29.626715', 'mgs': 0, 'depth': 1.309, 'time': 13.15, 'pitch': -0.58, 'roll': 9.65}
{'lipoC2': 8.0, 'temp': 28.63, 'lipoC3S3': 12.34, 'rot1': 101, 'rot0': 98, 'rot3': 19, 'rot2': 21, 'state': 'normal', 'yaw': -0.22, 'datetime': '2018-10-12 20:01:29.725519', 'mgs': 0, 'depth': 2.454, 'time': 13.25, 'pitch': -0.75, 'roll': 9.41}
{'lipoC2': 8.02, 'temp': 28.63, 'lipoC3S3': 12.33, 'rot1': 102, 'rot0': 99, 'rot3': 19, 'rot2': 21, 'state': 'normal', 'yaw': 0.83, 'datetime': '2018-10-12 20:01:29.822992', 'mgs': 0, 'depth': 1.843, 'time': 13.35, 'pitch': -0.64, 'roll': 9.04}
{'lipoC2': 8.02, 'temp': 28.63, 'lipoC3S3': 12.31, 'rot1': 104, 'rot0': 100, 'rot3': 19, 'rot2': 21, 'state': 'normal', 'yaw': 1.82, 'datetime': '2018-10-12 20:01:29.920864', 'mgs': 0, 'depth': 1.843, 'time': 13.44, 'pitch': -0.24, 'roll': 8.76}
{'lipoC2': 8.0, 'temp': 28.63, 'lipoC3S3': 12.22, 'rot1': 105, 'rot0': 101, 'rot3': 19, 'rot2': 22, 'state': 'normal', 'yaw': 2.59, 'datetime': '2018-10-12 20:01:30.018851', 'mgs': 0, 'depth': 1.233, 'time': 13.54, 'pitch': 0.24, 'roll': 8.61}
{'lipoC2': 8.01, 'temp': 28.63, 'lipoC3S3': 12.3, 'rot1': 106, 'rot0': 102, 'rot3': 19, 'rot2': 22, 'state': 'normal', 'yaw': 3.31, 'datetime': '2018-10-12 20:01:30.117729', 'mgs': 0, 'depth': 2.682, 'time': 13.64, 'pitch': 0.67, 'roll': 8.7}
{'lipoC2': 8.0, 'temp': 28.63, 'lipoC3S3': 12.31, 'rot1': 106, 'rot0': 104, 'rot3': 20, 'rot2': 23, 'state': 'normal', 'yaw': 3.64, 'datetime': '2018-10-12 20:01:30.216573', 'mgs': 0, 'depth': 1.309, 'time': 13.74, 'pitch': 0.78, 'roll': 9.09}
{'lipoC2': 8.0, 'temp': 28.63, 'lipoC3S3': 12.34, 'rot1': 107, 'rot0': 105, 'rot3': 20, 'rot2': 23, 'state': 'normal', 'yaw': 3.54, 'datetime': '2018-10-12 20:01:30.315052', 'mgs': 0, 'depth': 1.309, 'time': 13.84, 'pitch': 0.62, 'roll': 9.5}
{'lipoC2': 8.0, 'temp': 28.63, 'lipoC3S3': 12.34, 'rot1': 108, 'rot0': 106, 'rot3': 20, 'rot2': 23, 'state': 'normal', 'yaw': 3.16, 'datetime': '2018-10-12 20:01:30.412603', 'mgs': 0, 'depth': 1.233, 'time': 13.94, 'pitch': 0.37, 'roll': 9.4}
{'lipoC2': 8.0, 'temp': 28.63, 'lipoC3S3': 12.35, 'rot1': 109, 'rot0': 107, 'rot3': 20, 'rot2': 23, 'state': 'normal', 'yaw': 2.48, 'datetime': '2018-10-12 20:01:30.510167', 'mgs': 0, 'depth': 1.309, 'time': 14.03, 'pitch': 0.03, 'roll': 8.84}
{'lipoC2': 8.0, 'temp': 28.63, 'lipoC3S3': 12.34, 'rot1': 110, 'rot0': 108, 'rot3': 20, 'rot2': 23, 'state': 'normal', 'yaw': 1.68, 'datetime': '2018-10-12 20:01:30.607852', 'mgs': 0, 'depth': 1.309, 'time': 14.13, 'pitch': -0.21, 'roll': 8.45}
{'lipoC2': 8.0, 'temp': 28.63, 'lipoC3S3': 12.31, 'rot1': 110, 'rot0': 109, 'rot3': 20, 'rot2': 23, 'state': 'normal', 'yaw': 0.6, 'datetime': '2018-10-12 20:01:30.705407', 'mgs': 0, 'depth': 1.385, 'time': 14.23, 'pitch': -0.37, 'roll': 8.38}
{'lipoC2': 8.0, 'temp': 28.63, 'lipoC3S3': 12.27, 'rot1': 111, 'rot0': 110, 'rot3': 20, 'rot2': 23, 'state': 'normal', 'yaw': -0.64, 'datetime': '2018-10-12 20:01:30.802926', 'mgs': 0, 'depth': 1.309, 'time': 14.33, 'pitch': -0.46, 'roll': 8.18}
{'lipoC2': 8.0, 'temp': 28.63, 'lipoC3S3': 12.25, 'rot1': 112, 'rot0': 111, 'rot3': 20, 'rot2': 23, 'state': 'normal', 'yaw': -1.82, 'datetime': '2018-10-12 20:01:30.900625', 'mgs': 0, 'depth': 1.309, 'time': 14.43, 'pitch': -0.52, 'roll': 7.87}
{'lipoC2': 8.0, 'temp': 28.63, 'lipoC3S3': 12.3, 'rot1': 113, 'rot0': 112, 'rot3': 20, 'rot2': 23, 'state': 'normal', 'yaw': -3.1, 'datetime': '2018-10-12 20:01:30.998275', 'mgs': 0, 'depth': 1.385, 'time': 14.52, 'pitch': -0.58, 'roll': 7.86}
{'lipoC2': 8.01, 'temp': 28.63, 'lipoC3S3': 12.26, 'rot1': 114, 'rot0': 113, 'rot3': 20, 'rot2': 23, 'state': 'normal', 'yaw': -3.92, 'datetime': '2018-10-12 20:01:31.095781', 'mgs': 0, 'depth': 1.385, 'time': 14.62, 'pitch': -0.59, 'roll': 8.23}
{'lipoC2': 8.01, 'temp': 28.63, 'lipoC3S3': 12.23, 'rot1': 115, 'rot0': 114, 'rot3': 20, 'rot2': 23, 'state': 'normal', 'yaw': -4.26, 'datetime': '2018-10-12 20:01:31.193394', 'mgs': 0, 'depth': 1.462, 'time': 14.72, 'pitch': -0.57, 'roll': 8.43}
{'lipoC2': 8.0, 'temp': 28.63, 'lipoC3S3': 12.31, 'rot1': 116, 'rot0': 115, 'rot3': 20, 'rot2': 24, 'state': 'normal', 'yaw': -4.27, 'datetime': '2018-10-12 20:01:31.291284', 'mgs': 0, 'depth': 1.843, 'time': 14.82, 'pitch': -0.58, 'roll': 8.27}
{'lipoC2': 8.0, 'temp': 28.63, 'lipoC3S3': 12.31, 'rot1': 118, 'rot0': 116, 'rot3': 21, 'rot2': 24, 'state': 'normal', 'yaw': -4.03, 'datetime': '2018-10-12 20:01:31.388863', 'mgs': 0, 'depth': 2.072, 'time': 14.91, 'pitch': -0.63, 'roll': 8.19}
{'lipoC2': 8.0, 'temp': 28.63, 'lipoC3S3': 12.31, 'rot1': 119, 'rot0': 117, 'rot3': 21, 'rot2': 25, 'state': 'normal', 'yaw': -3.6, 'datetime': '2018-10-12 20:01:31.486774', 'mgs': 0, 'depth': 2.072, 'time': 15.01, 'pitch': -0.79, 'roll': 8.41}
{'lipoC2': 8.0, 'temp': 28.63, 'lipoC3S3': 12.33, 'rot1': 120, 'rot0': 118, 'rot3': 22, 'rot2': 25, 'state': 'normal', 'yaw': -3.08, 'datetime': '2018-10-12 20:01:31.584207', 'mgs': 0, 'depth': 1.462, 'time': 15.11, 'pitch': -1.05, 'roll': 8.83}
{'lipoC2': 8.01, 'temp': 28.63, 'lipoC3S3': 12.25, 'rot1': 121, 'rot0': 119, 'rot3': 23, 'rot2': 27, 'state': 'normal', 'yaw': -2.39, 'datetime': '2018-10-12 20:01:31.682128', 'mgs': 0, 'depth': 1.767, 'time': 15.21, 'pitch': -1.16, 'roll': 9.23}
{'lipoC2': 8.01, 'temp': 28.63, 'lipoC3S3': 12.33, 'rot1': 122, 'rot0': 120, 'rot3': 23, 'rot2': 27, 'state': 'normal', 'yaw': -1.61, 'datetime': '2018-10-12 20:01:31.781275', 'mgs': 0, 'depth': 1.538, 'time': 15.31, 'pitch': -1.16, 'roll': 9.44}
{'lipoC2': 8.01, 'temp': 28.63, 'lipoC3S3': 12.19, 'rot1': 123, 'rot0': 120, 'rot3': 23, 'rot2': 28, 'state': 'normal', 'yaw': -0.64, 'datetime': '2018-10-12 20:01:31.880008', 'mgs': 0, 'depth': 1.462, 'time': 15.41, 'pitch': -1.19, 'roll': 9.5}
{'lipoC2': 8.0, 'temp': 28.63, 'lipoC3S3': 12.31, 'rot1': 124, 'rot0': 121, 'rot3': 24, 'rot2': 29, 'state': 'normal', 'yaw': 0.46, 'datetime': '2018-10-12 20:01:31.977924', 'mgs': 0, 'depth': 2.606, 'time': 15.5, 'pitch': -1.28, 'roll': 9.48}
{'lipoC2': 8.0, 'temp': 28.63, 'lipoC3S3': 12.31, 'rot1': 125, 'rot0': 122, 'rot3': 24, 'rot2': 29, 'state': 'normal', 'yaw': 1.72, 'datetime': '2018-10-12 20:01:32.075504', 'mgs': 0, 'depth': 1.92, 'time': 15.6, 'pitch': -1.26, 'roll': 9.39}
{'lipoC2': 8.0, 'temp': 28.63, 'lipoC3S3': 12.31, 'rot1': 126, 'rot0': 123, 'rot3': 25, 'rot2': 30, 'state': 'normal', 'yaw': 3.03, 'datetime': '2018-10-12 20:01:32.173084', 'mgs': 0, 'depth': 1.92, 'time': 15.7, 'pitch': -1.11, 'roll': 9.31}
{'lipoC2': 8.01, 'temp': 28.63, 'lipoC3S3': 12.26, 'rot1': 127, 'rot0': 124, 'rot3': 25, 'rot2': 30, 'state': 'normal', 'yaw': 3.91, 'datetime': '2018-10-12 20:01:32.272007', 'mgs': 0, 'depth': 1.385, 'time': 15.8, 'pitch': -0.96, 'roll': 9.3}
{'lipoC2': 8.0, 'temp': 28.63, 'lipoC3S3': 12.31, 'rot1': 128, 'rot0': 125, 'rot3': 26, 'rot2': 31, 'state': 'normal', 'yaw': 4.49, 'datetime': '2018-10-12 20:01:32.370950', 'mgs': 0, 'depth': 1.843, 'time': 15.9, 'pitch': -0.85, 'roll': 9.4}
{'lipoC2': 8.0, 'temp': 28.69, 'lipoC3S3': 12.33, 'rot1': 129, 'rot0': 126, 'rot3': 26, 'rot2': 31, 'state': 'normal', 'yaw': 4.71, 'datetime': '2018-10-12 20:01:32.468776', 'mgs': 0, 'depth': 1.233, 'time': 15.99, 'pitch': -0.76, 'roll': 9.5}
{'lipoC2': 8.0, 'temp': 28.69, 'lipoC3S3': 12.29, 'rot1': 129, 'rot0': 127, 'rot3': 27, 'rot2': 32, 'state': 'normal', 'yaw': 4.62, 'datetime': '2018-10-12 20:01:32.566413', 'mgs': 0, 'depth': 1.309, 'time': 16.09, 'pitch': -0.59, 'roll': 9.32}
{'lipoC2': 8.0, 'temp': 28.69, 'lipoC3S3': 12.25, 'rot1': 130, 'rot0': 129, 'rot3': 27, 'rot2': 32, 'state': 'normal', 'yaw': 4.25, 'datetime': '2018-10-12 20:01:32.664598', 'mgs': 0, 'depth': 1.309, 'time': 16.19, 'pitch': -0.41, 'roll': 8.85}
{'lipoC2': 8.0, 'temp': 28.63, 'lipoC3S3': 12.26, 'rot1': 131, 'rot0': 130, 'rot3': 27, 'rot2': 32, 'state': 'normal', 'yaw': 3.78, 'datetime': '2018-10-12 20:01:32.761627', 'mgs': 0, 'depth': 1.309, 'time': 16.29, 'pitch': -0.22, 'roll': 8.49}
{'lipoC2': 8.01, 'temp': 28.63, 'lipoC3S3': 12.34, 'rot1': 132, 'rot0': 131, 'rot3': 27, 'rot2': 32, 'state': 'normal', 'yaw': 3.03, 'datetime': '2018-10-12 20:01:32.859242', 'mgs': 0, 'depth': 1.233, 'time': 16.39, 'pitch': -0.04, 'roll': 8.37}
{'lipoC2': 8.01, 'temp': 28.63, 'lipoC3S3': 12.31, 'rot1': 133, 'rot0': 132, 'rot3': 27, 'rot2': 32, 'state': 'normal', 'yaw': 2.08, 'datetime': '2018-10-12 20:01:32.956987', 'mgs': 0, 'depth': 1.309, 'time': 16.48, 'pitch': 0.07, 'roll': 8.08}
{'lipoC2': 8.01, 'temp': 28.63, 'lipoC3S3': 12.33, 'rot1': 134, 'rot0': 133, 'rot3': 27, 'rot2': 32, 'state': 'normal', 'yaw': 1.07, 'datetime': '2018-10-12 20:01:33.054566', 'mgs': 0, 'depth': 1.691, 'time': 16.58, 'pitch': 0.08, 'roll': 7.52}
{'lipoC2': 8.02, 'temp': 28.63, 'lipoC3S3': 12.33, 'rot1': 134, 'rot0': 134, 'rot3': 27, 'rot2': 32, 'state': 'normal', 'yaw': -0.19, 'datetime': '2018-10-12 20:01:33.151955', 'mgs': 0, 'depth': 2.148, 'time': 16.68, 'pitch': -0.07, 'roll': 7.08}
{'lipoC2': 8.01, 'temp': 28.63, 'lipoC3S3': 12.27, 'rot1': 135, 'rot0': 136, 'rot3': 27, 'rot2': 32, 'state': 'normal', 'yaw': -1.62, 'datetime': '2018-10-12 20:01:33.249626', 'mgs': 0, 'depth': 2.759, 'time': 16.78, 'pitch': -0.31, 'roll': 7.22}
{'lipoC2': 8.0, 'temp': 28.63, 'lipoC3S3': 12.3, 'rot1': 136, 'rot0': 137, 'rot3': 28, 'rot2': 34, 'state': 'normal', 'yaw': -3.2, 'datetime': '2018-10-12 20:01:33.347303', 'mgs': 0, 'depth': 2.606, 'time': 16.87, 'pitch': -0.61, 'roll': 7.64}
{'lipoC2': 8.0, 'temp': 28.63, 'lipoC3S3': 12.31, 'rot1': 137, 'rot0': 137, 'rot3': 28, 'rot2': 34, 'state': 'normal', 'yaw': -4.35, 'datetime': '2018-10-12 20:01:33.444977', 'mgs': 0, 'depth': 1.996, 'time': 16.97, 'pitch': -0.85, 'roll': 8.05}
{'lipoC2': 8.0, 'temp': 28.63, 'lipoC3S3': 12.33, 'rot1': 138, 'rot0': 138, 'rot3': 29, 'rot2': 35, 'state': 'normal', 'yaw': -5.08, 'datetime': '2018-10-12 20:01:33.542682', 'mgs': 0, 'depth': 1.385, 'time': 17.07, 'pitch': -1.07, 'roll': 8.66}
{'lipoC2': 8.0, 'temp': 28.63, 'lipoC3S3': 12.33, 'rot1': 139, 'rot0': 139, 'rot3': 29, 'rot2': 36, 'state': 'normal', 'yaw': -5.21, 'datetime': '2018-10-12 20:01:33.640252', 'mgs': 0, 'depth': 1.385, 'time': 17.17, 'pitch': -1.33, 'roll': 9.34}
{'lipoC2': 8.0, 'temp': 28.63, 'lipoC3S3': 12.33, 'rot1': 140, 'rot0': 140, 'rot3': 30, 'rot2': 36, 'state': 'normal', 'yaw': -4.8, 'datetime': '2018-10-12 20:01:33.737770', 'mgs': 0, 'depth': 1.385, 'time': 17.26, 'pitch': -1.59, 'roll': 9.97}
{'lipoC2': 8.0, 'temp': 28.63, 'lipoC3S3': 12.31, 'rot1': 142, 'rot0': 141, 'rot3': 30, 'rot2': 37, 'state': 'normal', 'yaw': -4.07, 'datetime': '2018-10-12 20:01:33.836239', 'mgs': 0, 'depth': 2.759, 'time': 17.36, 'pitch': -1.71, 'roll': 10.17}
{'lipoC2': 8.0, 'temp': 28.63, 'lipoC3S3': 12.27, 'rot1': 143, 'rot0': 142, 'rot3': 31, 'rot2': 37, 'state': 'normal', 'yaw': -2.95, 'datetime': '2018-10-12 20:01:33.934901', 'mgs': 0, 'depth': 1.309, 'time': 17.46, 'pitch': -1.62, 'roll': 10.1}
{'lipoC2': 8.0, 'temp': 28.63, 'lipoC3S3': 12.3, 'rot1': 144, 'rot0': 143, 'rot3': 32, 'rot2': 38, 'state': 'normal', 'yaw': -1.61, 'datetime': '2018-10-12 20:01:34.033705', 'mgs': 0, 'depth': 2.377, 'time': 17.56, 'pitch': -1.38, 'roll': 9.95}
{'lipoC2': 8.01, 'temp': 28.63, 'lipoC3S3': 12.29, 'rot1': 145, 'rot0': 144, 'rot3': 32, 'rot2': 38, 'state': 'normal', 'yaw': -0.23, 'datetime': '2018-10-12 20:01:34.131345', 'mgs': 0, 'depth': 3.14, 'time': 17.66, 'pitch': -1.23, 'roll': 9.94}
{'lipoC2': 8.01, 'temp': 28.63, 'lipoC3S3': 12.29, 'rot1': 146, 'rot0': 145, 'rot3': 33, 'rot2': 40, 'state': 'normal', 'yaw': 1.1, 'datetime': '2018-10-12 20:01:34.228963', 'mgs': 0, 'depth': 3.14, 'time': 17.76, 'pitch': -1.29, 'roll': 10.06}
{'lipoC2': 8.0, 'temp': 28.63, 'lipoC3S3': 12.3, 'rot1': 147, 'rot0': 146, 'rot3': 33, 'rot2': 41, 'state': 'normal', 'yaw': 2.27, 'datetime': '2018-10-12 20:01:34.328532', 'mgs': 0, 'depth': 1.309, 'time': 17.85, 'pitch': -1.47, 'roll': 10.31}
{'lipoC2': 8.01, 'temp': 28.63, 'lipoC3S3': 12.29, 'rot1': 148, 'rot0': 147, 'rot3': 33, 'rot2': 41, 'state': 'normal', 'yaw': 3.15, 'datetime': '2018-10-12 20:01:34.420941', 'mgs': 0, 'depth': 1.309, 'time': 17.95, 'pitch': -1.54, 'roll': 10.46}
{'lipoC2': 8.0, 'temp': 28.63, 'lipoC3S3': 12.33, 'rot1': 149, 'rot0': 148, 'rot3': 33, 'rot2': 41, 'state': 'normal', 'yaw': 4.0, 'datetime': '2018-10-12 20:01:34.519587', 'mgs': 0, 'depth': 1.385, 'time': 18.05, 'pitch': -1.58, 'roll': 10.22}
{'lipoC2': 8.0, 'temp': 28.63, 'lipoC3S3': 12.33, 'rot1': 150, 'rot0': 149, 'rot3': 33, 'rot2': 41, 'state': 'normal', 'yaw': 4.52, 'datetime': '2018-10-12 20:01:34.622287', 'mgs': 0, 'depth': 1.309, 'time': 18.15, 'pitch': -1.52, 'roll': 9.47}
{'lipoC2': 8.0, 'temp': 28.69, 'lipoC3S3': 12.33, 'rot1': 151, 'rot0': 150, 'rot3': 33, 'rot2': 41, 'state': 'normal', 'yaw': 4.66, 'datetime': '2018-10-12 20:01:34.719816', 'mgs': 0, 'depth': 1.309, 'time': 18.25, 'pitch': -1.41, 'roll': 8.85}
{'lipoC2': 8.01, 'temp': 28.69, 'lipoC3S3': 12.25, 'rot1': 152, 'rot0': 151, 'rot3': 33, 'rot2': 41, 'state': 'normal', 'yaw': 4.46, 'datetime': '2018-10-12 20:01:34.817770', 'mgs': 0, 'depth': 1.309, 'time': 18.35, 'pitch': -1.35, 'roll': 8.7}
{'lipoC2': 8.01, 'temp': 28.63, 'lipoC3S3': 12.31, 'rot1': 152, 'rot0': 152, 'rot3': 33, 'rot2': 41, 'state': 'normal', 'yaw': 4.02, 'datetime': '2018-10-12 20:01:34.915328', 'mgs': 0, 'depth': 1.309, 'time': 18.44, 'pitch': -1.33, 'roll': 8.71}
{'lipoC2': 8.01, 'temp': 28.63, 'lipoC3S3': 12.31, 'rot1': 153, 'rot0': 154, 'rot3': 33, 'rot2': 41, 'state': 'normal', 'yaw': 3.34, 'datetime': '2018-10-12 20:01:35.012886', 'mgs': 0, 'depth': 1.538, 'time': 18.54, 'pitch': -1.3, 'roll': 8.78}
{'lipoC2': 8.01, 'temp': 28.63, 'lipoC3S3': 12.31, 'rot1': 154, 'rot0': 155, 'rot3': 33, 'rot2': 41, 'state': 'normal', 'yaw': 2.48, 'datetime': '2018-10-12 20:01:35.110594', 'mgs': 0, 'depth': 2.072, 'time': 18.64, 'pitch': -1.21, 'roll': 9.01}
{'lipoC2': 8.0, 'temp': 28.63, 'lipoC3S3': 12.34, 'rot1': 155, 'rot0': 156, 'rot3': 33, 'rot2': 41, 'state': 'normal', 'yaw': 1.47, 'datetime': '2018-10-12 20:01:35.208377', 'mgs': 0, 'depth': 1.385, 'time': 18.74, 'pitch': -1.01, 'roll': 9.15}
{'lipoC2': 8.0, 'temp': 28.63, 'lipoC3S3': 12.3, 'rot1': 156, 'rot0': 157, 'rot3': 34, 'rot2': 41, 'state': 'normal', 'yaw': 0.43, 'datetime': '2018-10-12 20:01:35.306006', 'mgs': 0, 'depth': 1.462, 'time': 18.83, 'pitch': -0.75, 'roll': 9.11}
{'lipoC2': 8.0, 'temp': 28.69, 'lipoC3S3': 12.31, 'rot1': 157, 'rot0': 158, 'rot3': 34, 'rot2': 42, 'state': 'normal', 'yaw': -0.86, 'datetime': '2018-10-12 20:01:35.403518', 'mgs': 0, 'depth': 1.462, 'time': 18.93, 'pitch': -0.47, 'roll': 8.99}
{'lipoC2': 8.0, 'temp': 28.69, 'lipoC3S3': 12.31, 'rot1': 158, 'rot0': 159, 'rot3': 34, 'rot2': 42, 'state': 'normal', 'yaw': -2.01, 'datetime': '2018-10-12 20:01:35.501051', 'mgs': 0, 'depth': 1.462, 'time': 19.03, 'pitch': -0.29, 'roll': 8.93}
{'lipoC2': 8.0, 'temp': 28.69, 'lipoC3S3': 12.13, 'rot1': 159, 'rot0': 161, 'rot3': 35, 'rot2': 43, 'state': 'normal', 'yaw': -2.84, 'datetime': '2018-10-12 20:01:35.599013', 'mgs': 0, 'depth': 1.385, 'time': 19.13, 'pitch': -0.24, 'roll': 9.12}
{'lipoC2': 8.01, 'temp': 28.63, 'lipoC3S3': 12.18, 'rot1': 160, 'rot0': 162, 'rot3': 36, 'rot2': 43, 'state': 'normal', 'yaw': -3.55, 'datetime': '2018-10-12 20:01:35.696585', 'mgs': 0, 'depth': 1.385, 'time': 19.23, 'pitch': -0.27, 'roll': 9.55}
{'lipoC2': 8.02, 'temp': 28.63, 'lipoC3S3': 12.25, 'rot1': 161, 'rot0': 162, 'rot3': 36, 'rot2': 44, 'state': 'normal', 'yaw': -3.84, 'datetime': '2018-10-12 20:01:35.794163', 'mgs': 0, 'depth': 1.462, 'time': 19.32, 'pitch': -0.2, 'roll': 9.89}
{'lipoC2': 8.02, 'temp': 28.63, 'lipoC3S3': 12.23, 'rot1': 162, 'rot0': 163, 'rot3': 37, 'rot2': 44, 'state': 'normal', 'yaw': -3.75, 'datetime': '2018-10-12 20:01:35.891843', 'mgs': 0, 'depth': 1.767, 'time': 19.42, 'pitch': -0.01, 'roll': 9.97}
{'lipoC2': 8.0, 'temp': 28.63, 'lipoC3S3': 12.31, 'rot1': 163, 'rot0': 164, 'rot3': 37, 'rot2': 45, 'state': 'normal', 'yaw': -3.39, 'datetime': '2018-10-12 20:01:35.990126', 'mgs': 0, 'depth': 1.385, 'time': 19.52, 'pitch': 0.22, 'roll': 9.88}
{'lipoC2': 8.01, 'temp': 28.63, 'lipoC3S3': 12.3, 'rot1': 164, 'rot0': 165, 'rot3': 38, 'rot2': 45, 'state': 'normal', 'yaw': -2.79, 'datetime': '2018-10-12 20:01:36.088979', 'mgs': 0, 'depth': 1.767, 'time': 19.62, 'pitch': 0.48, 'roll': 9.68}
{'lipoC2': 8.0, 'temp': 28.63, 'lipoC3S3': 12.33, 'rot1': 166, 'rot0': 166, 'rot3': 38, 'rot2': 46, 'state': 'normal', 'yaw': -1.97, 'datetime': '2018-10-12 20:01:36.187878', 'mgs': 0, 'depth': 1.385, 'time': 19.72, 'pitch': 0.85, 'roll': 9.37}
{'lipoC2': 8.01, 'temp': 28.63, 'lipoC3S3': 12.25, 'rot1': 167, 'rot0': 167, 'rot3': 38, 'rot2': 47, 'state': 'normal', 'yaw': -1.07, 'datetime': '2018-10-12 20:01:36.286668', 'mgs': 0, 'depth': 1.309, 'time': 19.82, 'pitch': 1.32, 'roll': 9.09}
{'lipoC2': 8.02, 'temp': 28.69, 'lipoC3S3': 12.25, 'rot1': 168, 'rot0': 168, 'rot3': 39, 'rot2': 47, 'state': 'normal', 'yaw': -0.13, 'datetime': '2018-10-12 20:01:36.384188', 'mgs': 0, 'depth': 1.309, 'time': 19.91, 'pitch': 1.79, 'roll': 8.84}
{'lipoC2': 8.01, 'temp': 28.69, 'lipoC3S3': 12.31, 'rot1': 169, 'rot0': 168, 'rot3': 39, 'rot2': 47, 'state': 'normal', 'yaw': 0.95, 'datetime': '2018-10-12 20:01:36.481788', 'mgs': 0, 'depth': 1.385, 'time': 20.01, 'pitch': 2.1, 'roll': 8.7}
{'lipoC2': 8.0, 'temp': 28.69, 'lipoC3S3': 12.18, 'rot1': 170, 'rot0': 169, 'rot3': 39, 'rot2': 47, 'state': 'normal', 'yaw': 2.02, 'datetime': '2018-10-12 20:01:36.580287', 'mgs': 0, 'depth': 1.233, 'time': 20.11, 'pitch': 2.27, 'roll': 8.58}
{'lipoC2': 8.0, 'temp': 28.69, 'lipoC3S3': 12.31, 'rot1': 171, 'rot0': 171, 'rot3': 39, 'rot2': 47, 'state': 'normal', 'yaw': 2.98, 'datetime': '2018-10-12 20:01:36.679169', 'mgs': 0, 'depth': 0.623, 'time': 20.21, 'pitch': 2.36, 'roll': 8.64}
{'lipoC2': 8.0, 'temp': 28.69, 'lipoC3S3': 12.3, 'rot1': 172, 'rot0': 172, 'rot3': 39, 'rot2': 47, 'state': 'normal', 'yaw': 3.63, 'datetime': '2018-10-12 20:01:36.777035', 'mgs': 0, 'depth': 1.309, 'time': 20.31, 'pitch': 2.25, 'roll': 8.87}
{'lipoC2': 8.0, 'temp': 28.63, 'lipoC3S3': 12.26, 'rot1': 173, 'rot0': 173, 'rot3': 39, 'rot2': 47, 'state': 'normal', 'yaw': 4.11, 'datetime': '2018-10-12 20:01:36.874614', 'mgs': 0, 'depth': 1.233, 'time': 20.41, 'pitch': 2.06, 'roll': 9.06}
{'lipoC2': 8.0, 'temp': 28.63, 'lipoC3S3': 12.21, 'rot1': 174, 'rot0': 174, 'rot3': 39, 'rot2': 47, 'state': 'normal', 'yaw': 4.3, 'datetime': '2018-10-12 20:01:36.972172', 'mgs': 0, 'depth': 1.233, 'time': 20.5, 'pitch': 1.97, 'roll': 9.13}
{'lipoC2': 8.0, 'temp': 28.69, 'lipoC3S3': 12.25, 'rot1': 175, 'rot0': 175, 'rot3': 39, 'rot2': 47, 'state': 'normal', 'yaw': 4.23, 'datetime': '2018-10-12 20:01:37.070793', 'mgs': 0, 'depth': 1.309, 'time': 20.6, 'pitch': 1.98, 'roll': 9.07}
{'lipoC2': 8.01, 'temp': 28.69, 'lipoC3S3': 12.3, 'rot1': 175, 'rot0': 176, 'rot3': 39, 'rot2': 47, 'state': 'normal', 'yaw': 3.87, 'datetime': '2018-10-12 20:01:37.168450', 'mgs': 0, 'depth': 1.309, 'time': 20.7, 'pitch': 2.03, 'roll': 8.76}
{'lipoC2': 8.01, 'temp': 28.69, 'lipoC3S3': 12.31, 'rot1': 176, 'rot0': 177, 'rot3': 39, 'rot2': 47, 'state': 'normal', 'yaw': 3.24, 'datetime': '2018-10-12 20:01:37.266043', 'mgs': 0, 'depth': 1.767, 'time': 20.8, 'pitch': 2.03, 'roll': 8.31}
{'lipoC2': 8.0, 'temp': 28.63, 'lipoC3S3': 12.27, 'rot1': 177, 'rot0': 179, 'rot3': 39, 'rot2': 48, 'state': 'normal', 'yaw': 2.39, 'datetime': '2018-10-12 20:01:37.363693', 'mgs': 0, 'depth': 2.759, 'time': 20.89, 'pitch': 1.82, 'roll': 7.99}
{'lipoC2': 8.0, 'temp': 28.63, 'lipoC3S3': 12.3, 'rot1': 178, 'rot0': 180, 'rot3': 40, 'rot2': 48, 'state': 'normal', 'yaw': 1.53, 'datetime': '2018-10-12 20:01:37.461762', 'mgs': 0, 'depth': 1.309, 'time': 20.99, 'pitch': 1.52, 'roll': 7.94}
{'lipoC2': 8.0, 'temp': 28.63, 'lipoC3S3': 12.31, 'rot1': 178, 'rot0': 181, 'rot3': 40, 'rot2': 49, 'state': 'normal', 'yaw': 0.48, 'datetime': '2018-10-12 20:01:37.559165', 'mgs': 0, 'depth': 1.462, 'time': 21.09, 'pitch': 1.14, 'roll': 8.11}
{'lipoC2': 8.0, 'temp': 28.63, 'lipoC3S3': 12.31, 'rot1': 179, 'rot0': 182, 'rot3': 41, 'rot2': 49, 'state': 'normal', 'yaw': -0.62, 'datetime': '2018-10-12 20:01:37.656726', 'mgs': 0, 'depth': 1.462, 'time': 21.19, 'pitch': 0.76, 'roll': 8.5}
{'lipoC2': 8.0, 'temp': 28.63, 'lipoC3S3': 12.3, 'rot1': 180, 'rot0': 183, 'rot3': 41, 'rot2': 50, 'state': 'normal', 'yaw': -1.72, 'datetime': '2018-10-12 20:01:37.754368', 'mgs': 0, 'depth': 1.462, 'time': 21.28, 'pitch': 0.42, 'roll': 8.98}
{'lipoC2': 8.0, 'temp': 28.69, 'lipoC3S3': 12.16, 'rot1': 181, 'rot0': 184, 'rot3': 42, 'rot2': 50, 'state': 'normal', 'yaw': -2.5, 'datetime': '2018-10-12 20:01:37.852052', 'mgs': 0, 'depth': 1.462, 'time': 21.38, 'pitch': 0.18, 'roll': 9.34}
{'lipoC2': 8.0, 'temp': 28.69, 'lipoC3S3': 12.1, 'rot1': 182, 'rot0': 186, 'rot3': 42, 'rot2': 51, 'state': 'normal', 'yaw': -3.07, 'datetime': '2018-10-12 20:01:37.949623', 'mgs': 0, 'depth': 1.462, 'time': 21.48, 'pitch': -0.06, 'roll': 9.7}
{'lipoC2': 8.01, 'temp': 28.63, 'lipoC3S3': 12.23, 'rot1': 184, 'rot0': 187, 'rot3': 43, 'rot2': 51, 'state': 'normal', 'yaw': -3.4, 'datetime': '2018-10-12 20:01:38.047316', 'mgs': 0, 'depth': 1.385, 'time': 21.58, 'pitch': -0.32, 'roll': 10.21}
{'lipoC2': 8.01, 'temp': 28.63, 'lipoC3S3': 12.25, 'rot1': 185, 'rot0': 187, 'rot3': 43, 'rot2': 52, 'state': 'normal', 'yaw': -3.34, 'datetime': '2018-10-12 20:01:38.144815', 'mgs': 0, 'depth': 1.614, 'time': 21.68, 'pitch': -0.52, 'roll': 10.61}
{'lipoC2': 8.02, 'temp': 28.63, 'lipoC3S3': 12.29, 'rot1': 186, 'rot0': 188, 'rot3': 44, 'rot2': 52, 'state': 'normal', 'yaw': -3.01, 'datetime': '2018-10-12 20:01:38.243437', 'mgs': 0, 'depth': 2.148, 'time': 21.77, 'pitch': -0.62, 'roll': 10.76}
{'lipoC2': 8.0, 'temp': 28.63, 'lipoC3S3': 12.3, 'rot1': 187, 'rot0': 189, 'rot3': 44, 'rot2': 53, 'state': 'normal', 'yaw': -2.51, 'datetime': '2018-10-12 20:01:38.342489', 'mgs': 0, 'depth': 1.462, 'time': 21.87, 'pitch': -0.62, 'roll': 10.77}
{'lipoC2': 8.01, 'temp': 28.63, 'lipoC3S3': 12.23, 'rot1': 188, 'rot0': 190, 'rot3': 45, 'rot2': 53, 'state': 'normal', 'yaw': -1.9, 'datetime': '2018-10-12 20:01:38.441292', 'mgs': 0, 'depth': 1.385, 'time': 21.97, 'pitch': -0.57, 'roll': 10.83}
{'lipoC2': 8.02, 'temp': 28.63, 'lipoC3S3': 12.23, 'rot1': 189, 'rot0': 191, 'rot3': 45, 'rot2': 54, 'state': 'normal', 'yaw': -1.17, 'datetime': '2018-10-12 20:01:38.538872', 'mgs': 0, 'depth': 1.309, 'time': 22.07, 'pitch': -0.48, 'roll': 10.82}
{'lipoC2': 8.01, 'temp': 28.63, 'lipoC3S3': 12.29, 'rot1': 190, 'rot0': 192, 'rot3': 46, 'rot2': 54, 'state': 'normal', 'yaw': -0.28, 'datetime': '2018-10-12 20:01:38.636480', 'mgs': 0, 'depth': 1.843, 'time': 22.17, 'pitch': -0.35, 'roll': 10.69}
{'lipoC2': 8.0, 'temp': 28.63, 'lipoC3S3': 12.31, 'rot1': 192, 'rot0': 193, 'rot3': 46, 'rot2': 55, 'state': 'normal', 'yaw': 0.72, 'datetime': '2018-10-12 20:01:38.734334', 'mgs': 0, 'depth': 1.92, 'time': 22.27, 'pitch': -0.23, 'roll': 10.55}
{'lipoC2': 8.0, 'temp': 28.69, 'lipoC3S3': 12.23, 'rot1': 193, 'rot0': 194, 'rot3': 47, 'rot2': 56, 'state': 'normal', 'yaw': 1.71, 'datetime': '2018-10-12 20:01:38.833442', 'mgs': 0, 'depth': 1.309, 'time': 22.37, 'pitch': -0.05, 'roll': 10.48}
{'lipoC2': 8.0, 'temp': 28.69, 'lipoC3S3': 12.29, 'rot1': 194, 'rot0': 195, 'rot3': 47, 'rot2': 56, 'state': 'normal', 'yaw': 2.86, 'datetime': '2018-10-12 20:01:38.932380', 'mgs': 0, 'depth': 2.682, 'time': 22.47, 'pitch': 0.22, 'roll': 10.36}
{'lipoC2': 8.01, 'temp': 28.69, 'lipoC3S3': 12.29, 'rot1': 194, 'rot0': 196, 'rot3': 48, 'rot2': 57, 'state': 'normal', 'yaw': 3.55, 'datetime': '2018-10-12 20:01:39.029714', 'mgs': 0, 'depth': 2.606, 'time': 22.56, 'pitch': 0.47, 'roll': 9.99}
{'lipoC2': 8.0, 'temp': 28.69, 'lipoC3S3': 12.29, 'rot1': 195, 'rot0': 197, 'rot3': 48, 'rot2': 57, 'state': 'normal', 'yaw': 3.75, 'datetime': '2018-10-12 20:01:39.127347', 'mgs': 0, 'depth': 1.767, 'time': 22.66, 'pitch': 0.63, 'roll': 9.35}
{'lipoC2': 8.0, 'temp': 28.69, 'lipoC3S3': 12.26, 'rot1': 196, 'rot0': 198, 'rot3': 49, 'rot2': 58, 'state': 'normal', 'yaw': 3.6, 'datetime': '2018-10-12 20:01:39.225190', 'mgs': 0, 'depth': 1.233, 'time': 22.76, 'pitch': 0.62, 'roll': 8.77}
{'lipoC2': 8.0, 'temp': 28.63, 'lipoC3S3': 12.21, 'rot1': 197, 'rot0': 199, 'rot3': 49, 'rot2': 59, 'state': 'normal', 'yaw': 3.17, 'datetime': '2018-10-12 20:01:39.322765', 'mgs': 0, 'depth': 1.233, 'time': 22.85, 'pitch': 0.51, 'roll': 8.5}
{'lipoC2': 8.0, 'temp': 28.63, 'lipoC3S3': 12.18, 'rot1': 198, 'rot0': 200, 'rot3': 50, 'rot2': 59, 'state': 'normal', 'yaw': 2.42, 'datetime': '2018-10-12 20:01:39.420413', 'mgs': 0, 'depth': 1.157, 'time': 22.95, 'pitch': 0.29, 'roll': 8.43}
{'lipoC2': 8.01, 'temp': 28.69, 'lipoC3S3': 12.22, 'rot1': 198, 'rot0': 201, 'rot3': 50, 'rot2': 59, 'state': 'normal', 'yaw': 1.47, 'datetime': '2018-10-12 20:01:39.518078', 'mgs': 0, 'depth': 1.233, 'time': 23.05, 'pitch': 0.12, 'roll': 8.43}
{'lipoC2': 8.0, 'temp': 28.69, 'lipoC3S3': 12.31, 'rot1': 199, 'rot0': 202, 'rot3': 50, 'rot2': 59, 'state': 'normal', 'yaw': 0.48, 'datetime': '2018-10-12 20:01:39.615761', 'mgs': 0, 'depth': 2.072, 'time': 23.15, 'pitch': 0.02, 'roll': 8.45}
{'lipoC2': 8.01, 'temp': 28.69, 'lipoC3S3': 12.27, 'rot1': 200, 'rot0': 203, 'rot3': 50, 'rot2': 59, 'state': 'normal', 'yaw': -0.77, 'datetime': '2018-10-12 20:01:39.713404', 'mgs': 0, 'depth': 2.225, 'time': 23.25, 'pitch': -0.12, 'roll': 8.16}
{'lipoC2': 8.01, 'temp': 28.63, 'lipoC3S3': 12.29, 'rot1': 201, 'rot0': 204, 'rot3': 50, 'rot2': 60, 'state': 'normal', 'yaw': -2.12, 'datetime': '2018-10-12 20:01:39.811198', 'mgs': 0, 'depth': 3.293, 'time': 23.34, 'pitch': -0.29, 'roll': 7.63}
{'lipoC2': 8.0, 'temp': 28.63, 'lipoC3S3': 12.29, 'rot1': 202, 'rot0': 206, 'rot3': 51, 'rot2': 60, 'state': 'normal', 'yaw': -3.32, 'datetime': '2018-10-12 20:01:39.908628', 'mgs': 0, 'depth': 1.843, 'time': 23.44, 'pitch': -0.52, 'roll': 7.43}
{'lipoC2': 8.0, 'temp': 28.63, 'lipoC3S3': 12.29, 'rot1': 203, 'rot0': 207, 'rot3': 51, 'rot2': 61, 'state': 'normal', 'yaw': -4.22, 'datetime': '2018-10-12 20:01:40.006556', 'mgs': 0, 'depth': 1.233, 'time': 23.54, 'pitch': -0.87, 'roll': 7.67}
{'lipoC2': 8.0, 'temp': 28.63, 'lipoC3S3': 12.26, 'rot1': 204, 'rot0': 208, 'rot3': 52, 'rot2': 62, 'state': 'normal', 'yaw': -4.98, 'datetime': '2018-10-12 20:01:40.104059', 'mgs': 0, 'depth': 1.309, 'time': 23.64, 'pitch': -1.29, 'roll': 8.12}
{'lipoC2': 7.99, 'temp': 28.63, 'lipoC3S3': 12.21, 'rot1': 205, 'rot0': 209, 'rot3': 53, 'rot2': 62, 'state': 'normal', 'yaw': -5.28, 'datetime': '2018-10-12 20:01:40.201516', 'mgs': 0, 'depth': 1.309, 'time': 23.74, 'pitch': -1.62, 'roll': 8.38}
{'lipoC2': 8.0, 'temp': 28.63, 'lipoC3S3': 12.26, 'rot1': 206, 'rot0': 209, 'rot3': 53, 'rot2': 62, 'state': 'normal', 'yaw': -5.11, 'datetime': '2018-10-12 20:01:40.299231', 'mgs': 0, 'depth': 1.233, 'time': 23.83, 'pitch': -1.75, 'roll': 8.38}
{'lipoC2': 8.0, 'temp': 28.63, 'lipoC3S3': 12.33, 'rot1': 207, 'rot0': 210, 'rot3': 53, 'rot2': 63, 'state': 'normal', 'yaw': -4.58, 'datetime': '2018-10-12 20:01:40.397216', 'mgs': 0, 'depth': 1.309, 'time': 23.93, 'pitch': -1.83, 'roll': 8.21}
{'lipoC2': 8.01, 'temp': 28.69, 'lipoC3S3': 12.31, 'rot1': 208, 'rot0': 211, 'rot3': 53, 'rot2': 63, 'state': 'normal', 'yaw': -3.94, 'datetime': '2018-10-12 20:01:40.496581', 'mgs': 0, 'depth': 1.538, 'time': 24.03, 'pitch': -1.95, 'roll': 7.87}
{'lipoC2': 8.0, 'temp': 28.69, 'lipoC3S3': 12.3, 'rot1': 209, 'rot0': 212, 'rot3': 53, 'rot2': 63, 'state': 'normal', 'yaw': -3.07, 'datetime': '2018-10-12 20:01:40.595335', 'mgs': 0, 'depth': 1.385, 'time': 24.13, 'pitch': -2.12, 'roll': 7.32}
{'lipoC2': 8.01, 'temp': 28.69, 'lipoC3S3': 12.27, 'rot1': 210, 'rot0': 213, 'rot3': 53, 'rot2': 63, 'state': 'normal', 'yaw': -2.05, 'datetime': '2018-10-12 20:01:40.693362', 'mgs': 0, 'depth': 1.92, 'time': 24.23, 'pitch': -2.21, 'roll': 7.25}
{'lipoC2': 8.01, 'temp': 28.63, 'lipoC3S3': 12.3, 'rot1': 212, 'rot0': 214, 'rot3': 54, 'rot2': 64, 'state': 'normal', 'yaw': -0.93, 'datetime': '2018-10-12 20:01:40.791060', 'mgs': 0, 'depth': 2.911, 'time': 24.33, 'pitch': -2.17, 'roll': 7.81}
{'lipoC2': 8.0, 'temp': 28.63, 'lipoC3S3': 12.27, 'rot1': 213, 'rot0': 215, 'rot3': 54, 'rot2': 64, 'state': 'normal', 'yaw': 0.28, 'datetime': '2018-10-12 20:01:40.888723', 'mgs': 0, 'depth': 1.767, 'time': 24.42, 'pitch': -2.09, 'roll': 8.41}
{'lipoC2': 7.99, 'temp': 28.63, 'lipoC3S3': 12.29, 'rot1': 214, 'rot0': 216, 'rot3': 55, 'rot2': 65, 'state': 'normal', 'yaw': 1.44, 'datetime': '2018-10-12 20:01:40.987407', 'mgs': 0, 'depth': 1.92, 'time': 24.52, 'pitch': -2.0, 'roll': 8.76}
{'lipoC2': 8.0, 'temp': 28.63, 'lipoC3S3': 12.12, 'rot1': 215, 'rot0': 217, 'rot3': 56, 'rot2': 65, 'state': 'normal', 'yaw': 2.63, 'datetime': '2018-10-12 20:01:41.086256', 'mgs': 0, 'depth': 1.233, 'time': 24.62, 'pitch': -1.77, 'roll': 9.23}
{'lipoC2': 8.01, 'temp': 28.63, 'lipoC3S3': 12.27, 'rot1': 216, 'rot0': 218, 'rot3': 56, 'rot2': 66, 'state': 'normal', 'yaw': 3.67, 'datetime': '2018-10-12 20:01:41.184799', 'mgs': 0, 'depth': 1.309, 'time': 24.72, 'pitch': -1.46, 'roll': 9.97}
{'lipoC2': 8.01, 'temp': 28.63, 'lipoC3S3': 12.31, 'rot1': 217, 'rot0': 219, 'rot3': 56, 'rot2': 66, 'state': 'normal', 'yaw': 4.53, 'datetime': '2018-10-12 20:01:41.282431', 'mgs': 0, 'depth': 1.691, 'time': 24.82, 'pitch': -1.16, 'roll': 10.71}
{'lipoC2': 8.0, 'temp': 28.63, 'lipoC3S3': 12.31, 'rot1': 218, 'rot0': 220, 'rot3': 56, 'rot2': 66, 'state': 'normal', 'yaw': 4.96, 'datetime': '2018-10-12 20:01:41.379974', 'mgs': 0, 'depth': 2.072, 'time': 24.91, 'pitch': -0.88, 'roll': 10.97}
{'lipoC2': 8.02, 'temp': 28.63, 'lipoC3S3': 12.22, 'rot1': 219, 'rot0': 221, 'rot3': 56, 'rot2': 66, 'state': 'normal', 'yaw': 4.97, 'datetime': '2018-10-12 20:01:41.478398', 'mgs': 0, 'depth': 1.309, 'time': 25.01, 'pitch': -0.62, 'roll': 10.62}
{'lipoC2': 8.01, 'temp': 28.63, 'lipoC3S3': 12.23, 'rot1': 220, 'rot0': 222, 'rot3': 56, 'rot2': 67, 'state': 'normal', 'yaw': 4.65, 'datetime': '2018-10-12 20:01:41.575996', 'mgs': 0, 'depth': 1.614, 'time': 25.11, 'pitch': -0.39, 'roll': 9.76}
{'lipoC2': 8.02, 'temp': 28.63, 'lipoC3S3': 12.27, 'rot1': 220, 'rot0': 224, 'rot3': 57, 'rot2': 67, 'state': 'normal', 'yaw': 4.03, 'datetime': '2018-10-12 20:01:41.673505', 'mgs': 0, 'depth': 2.148, 'time': 25.21, 'pitch': -0.28, 'roll': 9.18}
