{'lipoC2': 8.23, 'temp': 28.31, 'lipoC3S3': 12.64, 'rot1': 0, 'rot0': 0, 'rot3': 0, 'rot2': 0, 'state': 'normal', 'yaw': 0.0, 'datetime': '2018-10-12 19:15:05.570229', 'mgs': 0, 'depth': 0.851, 'time': 1.26, 'pitch': -0.24, 'roll': 2.72}
{'lipoC2': 8.23, 'temp': 28.31, 'lipoC3S3': 12.64, 'rot1': 0, 'rot0': 0, 'rot3': 0, 'rot2': 0, 'state': 'normal', 'yaw': 0.34, 'datetime': '2018-10-12 19:15:05.597497', 'mgs': 0, 'depth': 0.851, 'time': 1.36, 'pitch': 0.75, 'roll': 3.24}
{'lipoC2': 8.24, 'temp': 28.31, 'lipoC3S3': 12.64, 'rot1': 0, 'rot0': 0, 'rot3': 0, 'rot2': 0, 'state': 'normal', 'yaw': 0.57, 'datetime': '2018-10-12 19:15:05.613370', 'mgs': 0, 'depth': 0.851, 'time': 1.46, 'pitch': 1.4, 'roll': 3.72}
{'lipoC2': 8.23, 'temp': 28.31, 'lipoC3S3': 12.66, 'rot1': 0, 'rot0': 0, 'rot3': 0, 'rot2': 0, 'state': 'normal', 'yaw': 0.43, 'datetime': '2018-10-12 19:15:05.627118', 'mgs': 0, 'depth': 0.851, 'time': 1.55, 'pitch': 1.65, 'roll': 3.59}
{'lipoC2': 8.23, 'temp': 28.31, 'lipoC3S3': 12.66, 'rot1': 0, 'rot0': 0, 'rot3': 0, 'rot2': 0, 'state': 'normal', 'yaw': -0.13, 'datetime': '2018-10-12 19:15:05.640561', 'mgs': 0, 'depth': 0.928, 'time': 1.65, 'pitch': 1.29, 'roll': 3.08}
{'lipoC2': 8.24, 'temp': 28.25, 'lipoC3S3': 12.66, 'rot1': 0, 'rot0': 0, 'rot3': 0, 'rot2': 0, 'state': 'normal', 'yaw': -0.57, 'datetime': '2018-10-12 19:15:05.647913', 'mgs': 0, 'depth': 0.851, 'time': 1.75, 'pitch': 0.55, 'roll': 2.84}
{'lipoC2': 8.23, 'temp': 28.25, 'lipoC3S3': 12.66, 'rot1': 0, 'rot0': 0, 'rot3': 0, 'rot2': 0, 'state': 'normal', 'yaw': -0.63, 'datetime': '2018-10-12 19:15:05.661031', 'mgs': 0, 'depth': 0.851, 'time': 1.85, 'pitch': -0.05, 'roll': 2.9}
{'lipoC2': 8.23, 'temp': 28.31, 'lipoC3S3': 12.66, 'rot1': 0, 'rot0': 0, 'rot3': 0, 'rot2': 0, 'state': 'normal', 'yaw': -0.82, 'datetime': '2018-10-12 19:15:05.674128', 'mgs': 0, 'depth': 0.851, 'time': 1.94, 'pitch': -0.27, 'roll': 2.77}
{'lipoC2': 8.23, 'temp': 28.31, 'lipoC3S3': 12.66, 'rot1': 0, 'rot0': 0, 'rot3': 0, 'rot2': 0, 'state': 'normal', 'yaw': -1.16, 'datetime': '2018-10-12 19:15:05.681504', 'mgs': 0, 'depth': 0.851, 'time': 2.04, 'pitch': -0.26, 'roll': 2.52}
{'lipoC2': 8.23, 'temp': 28.31, 'lipoC3S3': 12.66, 'rot1': 0, 'rot0': 0, 'rot3': 0, 'rot2': 0, 'state': 'normal', 'yaw': -1.48, 'datetime': '2018-10-12 19:15:05.694617', 'mgs': 0, 'depth': 0.851, 'time': 2.14, 'pitch': 0.01, 'roll': 2.02}
{'lipoC2': 8.23, 'temp': 28.31, 'lipoC3S3': 12.66, 'rot1': 0, 'rot0': 0, 'rot3': 0, 'rot2': 0, 'state': 'normal', 'yaw': -1.68, 'datetime': '2018-10-12 19:15:05.707734', 'mgs': 0, 'depth': 0.851, 'time': 2.23, 'pitch': 0.3, 'roll': 1.43}
{'lipoC2': 8.23, 'temp': 28.31, 'lipoC3S3': 12.66, 'rot1': 0, 'rot0': 0, 'rot3': 0, 'rot2': 0, 'state': 'normal', 'yaw': -1.68, 'datetime': '2018-10-12 19:15:05.715268', 'mgs': 0, 'depth': 0.851, 'time': 2.33, 'pitch': 0.49, 'roll': 1.12}
{'lipoC2': 8.23, 'temp': 28.31, 'lipoC3S3': 12.66, 'rot1': 0, 'rot0': 0, 'rot3': 0, 'rot2': 0, 'state': 'normal', 'yaw': -1.68, 'datetime': '2018-10-12 19:15:05.729058', 'mgs': 0, 'depth': 0.851, 'time': 2.43, 'pitch': 0.62, 'roll': 1.11}
{'lipoC2': 8.23, 'temp': 28.31, 'lipoC3S3': 12.66, 'rot1': 0, 'rot0': 0, 'rot3': 0, 'rot2': 0, 'state': 'normal', 'yaw': -1.78, 'datetime': '2018-10-12 19:15:05.742275', 'mgs': 0, 'depth': 0.775, 'time': 2.52, 'pitch': 0.48, 'roll': 1.35}
{'lipoC2': 8.23, 'temp': 28.31, 'lipoC3S3': 12.66, 'rot1': 0, 'rot0': 0, 'rot3': 0, 'rot2': 0, 'state': 'normal', 'yaw': -1.95, 'datetime': '2018-10-12 19:15:05.749643', 'mgs': 0, 'depth': 0.775, 'time': 2.62, 'pitch': 0.17, 'roll': 1.4}
{'lipoC2': 8.23, 'temp': 28.31, 'lipoC3S3': 12.66, 'rot1': 0, 'rot0': 0, 'rot3': 0, 'rot2': 0, 'state': 'normal', 'yaw': -2.15, 'datetime': '2018-10-12 19:15:05.762793', 'mgs': 0, 'depth': 0.699, 'time': 2.72, 'pitch': -0.2, 'roll': 1.22}
{'lipoC2': 8.23, 'temp': 28.31, 'lipoC3S3': 12.66, 'rot1': 0, 'rot0': 0, 'rot3': 0, 'rot2': 0, 'state': 'normal', 'yaw': -2.2, 'datetime': '2018-10-12 19:15:05.775916', 'mgs': 0, 'depth': 0.775, 'time': 2.81, 'pitch': -0.4, 'roll': 0.9}
{'lipoC2': 8.23, 'temp': 28.31, 'lipoC3S3': 12.66, 'rot1': 0, 'rot0': 0, 'rot3': 0, 'rot2': 0, 'state': 'normal', 'yaw': -2.04, 'datetime': '2018-10-12 19:15:05.783269', 'mgs': 0, 'depth': 0.699, 'time': 2.91, 'pitch': -0.41, 'roll': 0.7}
{'lipoC2': 8.23, 'temp': 28.31, 'lipoC3S3': 12.66, 'rot1': 0, 'rot0': 0, 'rot3': 0, 'rot2': 0, 'state': 'normal', 'yaw': -1.75, 'datetime': '2018-10-12 19:15:05.796384', 'mgs': 0, 'depth': 0.775, 'time': 3.01, 'pitch': -0.3, 'roll': 0.64}
{'lipoC2': 8.23, 'temp': 28.31, 'lipoC3S3': 12.66, 'rot1': 0, 'rot0': 0, 'rot3': 0, 'rot2': 0, 'state': 'normal', 'yaw': -1.57, 'datetime': '2018-10-12 19:15:05.809501', 'mgs': 0, 'depth': 0.699, 'time': 3.11, 'pitch': -0.19, 'roll': 0.59}
{'lipoC2': 8.23, 'temp': 28.31, 'lipoC3S3': 12.66, 'rot1': 0, 'rot0': 0, 'rot3': 0, 'rot2': 0, 'state': 'normal', 'yaw': -1.5, 'datetime': '2018-10-12 19:15:05.817125', 'mgs': 0, 'depth': 0.699, 'time': 3.2, 'pitch': -0.04, 'roll': 0.43}
{'lipoC2': 8.23, 'temp': 28.31, 'lipoC3S3': 12.66, 'rot1': 0, 'rot0': 0, 'rot3': 0, 'rot2': 0, 'state': 'normal', 'yaw': -1.49, 'datetime': '2018-10-12 19:15:05.830969', 'mgs': 0, 'depth': 0.775, 'time': 3.3, 'pitch': 0.07, 'roll': 0.29}
{'lipoC2': 8.23, 'temp': 28.31, 'lipoC3S3': 12.66, 'rot1': 0, 'rot0': 0, 'rot3': 0, 'rot2': 0, 'state': 'normal', 'yaw': -1.39, 'datetime': '2018-10-12 19:15:05.844104', 'mgs': 0, 'depth': 0.699, 'time': 3.4, 'pitch': 0.19, 'roll': 0.28}
{'lipoC2': 8.23, 'temp': 28.31, 'lipoC3S3': 12.66, 'rot1': 0, 'rot0': 0, 'rot3': 0, 'rot2': 0, 'state': 'normal', 'yaw': -1.21, 'datetime': '2018-10-12 19:15:05.851472', 'mgs': 0, 'depth': 0.775, 'time': 3.49, 'pitch': 0.13, 'roll': 0.46}
{'lipoC2': 8.23, 'temp': 28.31, 'lipoC3S3': 12.52, 'rot1': 0, 'rot0': 0, 'rot3': 0, 'rot2': 0, 'state': 'normal', 'yaw': -1.2, 'datetime': '2018-10-12 19:15:05.864592', 'mgs': 0, 'depth': 0.851, 'time': 3.59, 'pitch': -0.1, 'roll': 0.81}
{'lipoC2': 8.23, 'temp': 28.31, 'lipoC3S3': 12.55, 'rot1': 1, 'rot0': 1, 'rot3': 0, 'rot2': 0, 'state': 'normal', 'yaw': -1.23, 'datetime': '2018-10-12 19:15:05.877736', 'mgs': 0, 'depth': 0.851, 'time': 3.69, 'pitch': -0.25, 'roll': 1.61}
{'lipoC2': 8.23, 'temp': 28.31, 'lipoC3S3': 12.54, 'rot1': 2, 'rot0': 2, 'rot3': 0, 'rot2': 0, 'state': 'normal', 'yaw': -1.23, 'datetime': '2018-10-12 19:15:05.927584', 'mgs': 0, 'depth': 0.775, 'time': 3.79, 'pitch': -0.22, 'roll': 2.47}
{'lipoC2': 8.24, 'temp': 28.25, 'lipoC3S3': 12.55, 'rot1': 3, 'rot0': 3, 'rot3': 0, 'rot2': 0, 'state': 'normal', 'yaw': -1.44, 'datetime': '2018-10-12 19:15:06.024264', 'mgs': 0, 'depth': 0.775, 'time': 3.88, 'pitch': -0.27, 'roll': 3.13}
{'lipoC2': 8.24, 'temp': 28.25, 'lipoC3S3': 12.54, 'rot1': 4, 'rot0': 4, 'rot3': 0, 'rot2': 0, 'state': 'normal', 'yaw': -2.0, 'datetime': '2018-10-12 19:15:06.120940', 'mgs': 0, 'depth': 0.851, 'time': 3.98, 'pitch': -0.44, 'roll': 3.68}
{'lipoC2': 8.24, 'temp': 28.25, 'lipoC3S3': 12.6, 'rot1': 5, 'rot0': 4, 'rot3': 0, 'rot2': 0, 'state': 'normal', 'yaw': -2.68, 'datetime': '2018-10-12 19:15:06.217556', 'mgs': 0, 'depth': 0.851, 'time': 4.08, 'pitch': -0.67, 'roll': 4.04}
{'lipoC2': 8.24, 'temp': 28.31, 'lipoC3S3': 12.6, 'rot1': 6, 'rot0': 5, 'rot3': 0, 'rot2': 0, 'state': 'normal', 'yaw': -3.17, 'datetime': '2018-10-12 19:15:06.314241', 'mgs': 0, 'depth': 0.851, 'time': 4.17, 'pitch': -0.72, 'roll': 4.26}
{'lipoC2': 8.23, 'temp': 28.31, 'lipoC3S3': 12.6, 'rot1': 8, 'rot0': 6, 'rot3': 0, 'rot2': 0, 'state': 'normal', 'yaw': -3.44, 'datetime': '2018-10-12 19:15:06.413806', 'mgs': 0, 'depth': 0.928, 'time': 4.27, 'pitch': -0.68, 'roll': 4.51}
{'lipoC2': 8.24, 'temp': 28.25, 'lipoC3S3': 12.62, 'rot1': 9, 'rot0': 7, 'rot3': 0, 'rot2': 0, 'state': 'normal', 'yaw': -3.34, 'datetime': '2018-10-12 19:15:06.510879', 'mgs': 0, 'depth': 0.851, 'time': 4.37, 'pitch': -0.53, 'roll': 4.78}
{'lipoC2': 8.24, 'temp': 28.25, 'lipoC3S3': 12.6, 'rot1': 10, 'rot0': 8, 'rot3': 0, 'rot2': 0, 'state': 'normal', 'yaw': -2.99, 'datetime': '2018-10-12 19:15:06.609337', 'mgs': 0, 'depth': 0.928, 'time': 4.47, 'pitch': -0.35, 'roll': 4.89}
{'lipoC2': 8.24, 'temp': 28.25, 'lipoC3S3': 12.59, 'rot1': 11, 'rot0': 9, 'rot3': 0, 'rot2': 0, 'state': 'normal', 'yaw': -2.38, 'datetime': '2018-10-12 19:15:06.706642', 'mgs': 0, 'depth': 0.851, 'time': 4.56, 'pitch': -0.08, 'roll': 4.75}
{'lipoC2': 8.23, 'temp': 28.31, 'lipoC3S3': 12.6, 'rot1': 12, 'rot0': 9, 'rot3': 0, 'rot2': 0, 'state': 'normal', 'yaw': -1.55, 'datetime': '2018-10-12 19:15:06.803369', 'mgs': 0, 'depth': 1.233, 'time': 4.66, 'pitch': 0.34, 'roll': 4.46}
{'lipoC2': 8.23, 'temp': 28.31, 'lipoC3S3': 12.62, 'rot1': 13, 'rot0': 10, 'rot3': 0, 'rot2': 0, 'state': 'normal', 'yaw': -0.64, 'datetime': '2018-10-12 19:15:06.901303', 'mgs': 0, 'depth': 1.004, 'time': 4.76, 'pitch': 0.77, 'roll': 4.37}
{'lipoC2': 8.23, 'temp': 28.31, 'lipoC3S3': 12.58, 'rot1': 14, 'rot0': 11, 'rot3': 0, 'rot2': 0, 'state': 'normal', 'yaw': 0.49, 'datetime': '2018-10-12 19:15:06.999568', 'mgs': 0, 'depth': 1.385, 'time': 4.86, 'pitch': 1.23, 'roll': 4.66}
{'lipoC2': 8.24, 'temp': 28.31, 'lipoC3S3': 12.56, 'rot1': 16, 'rot0': 12, 'rot3': 0, 'rot2': 0, 'state': 'normal', 'yaw': 1.38, 'datetime': '2018-10-12 19:15:07.096908', 'mgs': 0, 'depth': 1.004, 'time': 4.95, 'pitch': 1.63, 'roll': 5.27}
{'lipoC2': 8.23, 'temp': 28.31, 'lipoC3S3': 12.6, 'rot1': 17, 'rot0': 13, 'rot3': 0, 'rot2': 0, 'state': 'normal', 'yaw': 2.0, 'datetime': '2018-10-12 19:15:07.194045', 'mgs': 0, 'depth': 1.08, 'time': 5.05, 'pitch': 1.95, 'roll': 5.88}
{'lipoC2': 8.23, 'temp': 28.31, 'lipoC3S3': 12.51, 'rot1': 18, 'rot0': 15, 'rot3': 0, 'rot2': 0, 'state': 'normal', 'yaw': 2.35, 'datetime': '2018-10-12 19:15:07.291983', 'mgs': 0, 'depth': 1.004, 'time': 5.15, 'pitch': 2.15, 'roll': 6.34}
{'lipoC2': 8.24, 'temp': 28.31, 'lipoC3S3': 12.6, 'rot1': 18, 'rot0': 16, 'rot3': 0, 'rot2': 0, 'state': 'normal', 'yaw': 2.39, 'datetime': '2018-10-12 19:15:07.390087', 'mgs': 0, 'depth': 1.004, 'time': 5.25, 'pitch': 2.36, 'roll': 6.81}
{'lipoC2': 8.24, 'temp': 28.31, 'lipoC3S3': 12.59, 'rot1': 19, 'rot0': 17, 'rot3': 0, 'rot2': 0, 'state': 'normal', 'yaw': 2.04, 'datetime': '2018-10-12 19:15:07.487248', 'mgs': 0, 'depth': 1.004, 'time': 5.34, 'pitch': 2.63, 'roll': 7.25}
{'lipoC2': 8.23, 'temp': 28.31, 'lipoC3S3': 12.6, 'rot1': 20, 'rot0': 18, 'rot3': 0, 'rot2': 0, 'state': 'normal', 'yaw': 1.39, 'datetime': '2018-10-12 19:15:07.584177', 'mgs': 0, 'depth': 1.004, 'time': 5.44, 'pitch': 2.91, 'roll': 7.46}
{'lipoC2': 8.24, 'temp': 28.31, 'lipoC3S3': 12.52, 'rot1': 21, 'rot0': 19, 'rot3': 0, 'rot2': 0, 'state': 'normal', 'yaw': 0.6, 'datetime': '2018-10-12 19:15:07.681179', 'mgs': 0, 'depth': 1.004, 'time': 5.54, 'pitch': 3.13, 'roll': 7.31}
{'lipoC2': 8.23, 'temp': 28.31, 'lipoC3S3': 12.6, 'rot1': 22, 'rot0': 20, 'rot3': 0, 'rot2': 0, 'state': 'normal', 'yaw': -0.48, 'datetime': '2018-10-12 19:15:07.778288', 'mgs': 0, 'depth': 0.47, 'time': 5.64, 'pitch': 3.27, 'roll': 6.83}
{'lipoC2': 8.23, 'temp': 28.31, 'lipoC3S3': 12.54, 'rot1': 23, 'rot0': 22, 'rot3': 0, 'rot2': 0, 'state': 'normal', 'yaw': -1.67, 'datetime': '2018-10-12 19:15:07.875289', 'mgs': 0, 'depth': 1.08, 'time': 5.73, 'pitch': 3.36, 'roll': 6.25}
{'lipoC2': 8.23, 'temp': 28.31, 'lipoC3S3': 12.59, 'rot1': 24, 'rot0': 23, 'rot3': 0, 'rot2': 0, 'state': 'normal', 'yaw': -2.61, 'datetime': '2018-10-12 19:15:07.972220', 'mgs': 0, 'depth': 2.072, 'time': 5.83, 'pitch': 3.41, 'roll': 5.91}
{'lipoC2': 8.23, 'temp': 28.31, 'lipoC3S3': 12.58, 'rot1': 25, 'rot0': 24, 'rot3': 1, 'rot2': 0, 'state': 'normal', 'yaw': -3.44, 'datetime': '2018-10-12 19:15:08.069398', 'mgs': 0, 'depth': 1.08, 'time': 5.93, 'pitch': 3.5, 'roll': 5.84}
{'lipoC2': 8.23, 'temp': 28.31, 'lipoC3S3': 12.51, 'rot1': 26, 'rot0': 25, 'rot3': 1, 'rot2': 0, 'state': 'normal', 'yaw': -4.08, 'datetime': '2018-10-12 19:15:08.166327', 'mgs': 0, 'depth': 1.614, 'time': 6.03, 'pitch': 3.47, 'roll': 6.14}
{'lipoC2': 8.23, 'temp': 28.31, 'lipoC3S3': 12.59, 'rot1': 27, 'rot0': 26, 'rot3': 2, 'rot2': 1, 'state': 'normal', 'yaw': -4.39, 'datetime': '2018-10-12 19:15:08.264138', 'mgs': 0, 'depth': 1.462, 'time': 6.12, 'pitch': 3.33, 'roll': 6.54}
{'lipoC2': 8.24, 'temp': 28.31, 'lipoC3S3': 12.56, 'rot1': 29, 'rot0': 27, 'rot3': 2, 'rot2': 1, 'state': 'normal', 'yaw': -4.45, 'datetime': '2018-10-12 19:15:08.362470', 'mgs': 0, 'depth': 2.301, 'time': 6.22, 'pitch': 3.07, 'roll': 6.92}
{'lipoC2': 8.23, 'temp': 28.31, 'lipoC3S3': 12.59, 'rot1': 30, 'rot0': 28, 'rot3': 2, 'rot2': 2, 'state': 'normal', 'yaw': -4.24, 'datetime': '2018-10-12 19:15:08.460489', 'mgs': 0, 'depth': 1.004, 'time': 6.32, 'pitch': 2.68, 'roll': 7.03}
{'lipoC2': 8.24, 'temp': 28.31, 'lipoC3S3': 12.58, 'rot1': 31, 'rot0': 29, 'rot3': 3, 'rot2': 2, 'state': 'normal', 'yaw': -3.85, 'datetime': '2018-10-12 19:15:08.557446', 'mgs': 0, 'depth': 1.538, 'time': 6.42, 'pitch': 2.08, 'roll': 6.9}
{'lipoC2': 8.24, 'temp': 28.31, 'lipoC3S3': 12.56, 'rot1': 32, 'rot0': 30, 'rot3': 3, 'rot2': 3, 'state': 'normal', 'yaw': -3.38, 'datetime': '2018-10-12 19:15:08.655087', 'mgs': 0, 'depth': 2.148, 'time': 6.51, 'pitch': 1.42, 'roll': 6.71}
{'lipoC2': 8.24, 'temp': 28.31, 'lipoC3S3': 12.51, 'rot1': 33, 'rot0': 31, 'rot3': 4, 'rot2': 3, 'state': 'normal', 'yaw': -2.71, 'datetime': '2018-10-12 19:15:08.753372', 'mgs': 0, 'depth': 1.004, 'time': 6.61, 'pitch': 0.75, 'roll': 6.34}
{'lipoC2': 8.23, 'temp': 28.31, 'lipoC3S3': 12.58, 'rot1': 34, 'rot0': 32, 'rot3': 4, 'rot2': 4, 'state': 'normal', 'yaw': -1.87, 'datetime': '2018-10-12 19:15:08.851421', 'mgs': 0, 'depth': 1.385, 'time': 6.71, 'pitch': 0.27, 'roll': 5.64}
{'lipoC2': 8.23, 'temp': 28.31, 'lipoC3S3': 12.45, 'rot1': 35, 'rot0': 33, 'rot3': 4, 'rot2': 5, 'state': 'normal', 'yaw': -0.84, 'datetime': '2018-10-12 19:15:08.948406', 'mgs': 0, 'depth': 0.928, 'time': 6.81, 'pitch': 0.03, 'roll': 4.66}
{'lipoC2': 8.23, 'temp': 28.31, 'lipoC3S3': 12.56, 'rot1': 36, 'rot0': 34, 'rot3': 5, 'rot2': 5, 'state': 'normal', 'yaw': 0.24, 'datetime': '2018-10-12 19:15:09.045750', 'mgs': 0, 'depth': 0.851, 'time': 6.91, 'pitch': 0.02, 'roll': 3.77}
{'lipoC2': 8.23, 'temp': 28.31, 'lipoC3S3': 12.56, 'rot1': 37, 'rot0': 35, 'rot3': 5, 'rot2': 6, 'state': 'normal', 'yaw': 1.32, 'datetime': '2018-10-12 19:15:09.143940', 'mgs': 0, 'depth': 1.309, 'time': 7.0, 'pitch': 0.31, 'roll': 3.22}
{'lipoC2': 8.24, 'temp': 28.31, 'lipoC3S3': 12.54, 'rot1': 38, 'rot0': 36, 'rot3': 6, 'rot2': 6, 'state': 'normal', 'yaw': 2.27, 'datetime': '2018-10-12 19:15:09.241009', 'mgs': 0, 'depth': 0.928, 'time': 7.1, 'pitch': 0.77, 'roll': 3.29}
{'lipoC2': 8.23, 'temp': 28.31, 'lipoC3S3': 12.59, 'rot1': 39, 'rot0': 38, 'rot3': 6, 'rot2': 6, 'state': 'normal', 'yaw': 3.13, 'datetime': '2018-10-12 19:15:09.338019', 'mgs': 0, 'depth': 1.614, 'time': 7.2, 'pitch': 1.19, 'roll': 3.68}
{'lipoC2': 8.23, 'temp': 28.31, 'lipoC3S3': 12.59, 'rot1': 40, 'rot0': 39, 'rot3': 6, 'rot2': 6, 'state': 'normal', 'yaw': 3.63, 'datetime': '2018-10-12 19:15:09.434971', 'mgs': 0, 'depth': 0.775, 'time': 7.29, 'pitch': 1.42, 'roll': 4.0}
{'lipoC2': 8.23, 'temp': 28.31, 'lipoC3S3': 12.59, 'rot1': 41, 'rot0': 40, 'rot3': 6, 'rot2': 6, 'state': 'normal', 'yaw': 3.81, 'datetime': '2018-10-12 19:15:09.533287', 'mgs': 0, 'depth': 0.851, 'time': 7.39, 'pitch': 1.53, 'roll': 4.15}
{'lipoC2': 8.23, 'temp': 28.31, 'lipoC3S3': 12.51, 'rot1': 42, 'rot0': 41, 'rot3': 6, 'rot2': 6, 'state': 'normal', 'yaw': 3.68, 'datetime': '2018-10-12 19:15:09.630486', 'mgs': 0, 'depth': 0.775, 'time': 7.49, 'pitch': 1.53, 'roll': 3.99}
{'lipoC2': 8.24, 'temp': 28.31, 'lipoC3S3': 12.59, 'rot1': 43, 'rot0': 42, 'rot3': 6, 'rot2': 6, 'state': 'normal', 'yaw': 3.28, 'datetime': '2018-10-12 19:15:09.727422', 'mgs': 0, 'depth': 1.843, 'time': 7.59, 'pitch': 1.45, 'roll': 3.45}
{'lipoC2': 8.23, 'temp': 28.31, 'lipoC3S3': 12.58, 'rot1': 43, 'rot0': 43, 'rot3': 6, 'rot2': 6, 'state': 'normal', 'yaw': 2.68, 'datetime': '2018-10-12 19:15:09.824498', 'mgs': 0, 'depth': 0.928, 'time': 7.68, 'pitch': 1.41, 'roll': 3.02}
{'lipoC2': 8.24, 'temp': 28.25, 'lipoC3S3': 12.5, 'rot1': 44, 'rot0': 44, 'rot3': 6, 'rot2': 7, 'state': 'normal', 'yaw': 1.76, 'datetime': '2018-10-12 19:15:09.921276', 'mgs': 0, 'depth': 1.233, 'time': 7.78, 'pitch': 1.36, 'roll': 2.88}
{'lipoC2': 8.24, 'temp': 28.25, 'lipoC3S3': 12.56, 'rot1': 45, 'rot0': 46, 'rot3': 6, 'rot2': 7, 'state': 'normal', 'yaw': 0.6, 'datetime': '2018-10-12 19:15:10.018577', 'mgs': 0, 'depth': 1.385, 'time': 7.88, 'pitch': 1.32, 'roll': 3.18}
{'lipoC2': 8.24, 'temp': 28.25, 'lipoC3S3': 12.56, 'rot1': 46, 'rot0': 47, 'rot3': 7, 'rot2': 9, 'state': 'normal', 'yaw': -0.5, 'datetime': '2018-10-12 19:15:10.116565', 'mgs': 0, 'depth': 1.92, 'time': 7.98, 'pitch': 1.3, 'roll': 3.73}
{'lipoC2': 8.24, 'temp': 28.25, 'lipoC3S3': 12.39, 'rot1': 47, 'rot0': 48, 'rot3': 7, 'rot2': 9, 'state': 'normal', 'yaw': -1.7, 'datetime': '2018-10-12 19:15:10.214800', 'mgs': 0, 'depth': 1.004, 'time': 8.08, 'pitch': 1.29, 'roll': 4.34}
{'lipoC2': 8.23, 'temp': 28.25, 'lipoC3S3': 12.55, 'rot1': 48, 'rot0': 50, 'rot3': 8, 'rot2': 10, 'state': 'normal', 'yaw': -2.66, 'datetime': '2018-10-12 19:15:10.312037', 'mgs': 0, 'depth': 1.767, 'time': 8.17, 'pitch': 1.31, 'roll': 4.92}
{'lipoC2': 8.24, 'temp': 28.31, 'lipoC3S3': 12.37, 'rot1': 49, 'rot0': 51, 'rot3': 8, 'rot2': 10, 'state': 'normal', 'yaw': -3.36, 'datetime': '2018-10-12 19:15:10.409699', 'mgs': 0, 'depth': 1.004, 'time': 8.27, 'pitch': 1.36, 'roll': 5.55}
{'lipoC2': 8.23, 'temp': 28.31, 'lipoC3S3': 12.46, 'rot1': 50, 'rot0': 52, 'rot3': 9, 'rot2': 11, 'state': 'normal', 'yaw': -3.84, 'datetime': '2018-10-12 19:15:10.507784', 'mgs': 0, 'depth': 1.08, 'time': 8.37, 'pitch': 1.33, 'roll': 6.06}
{'lipoC2': 8.23, 'temp': 28.31, 'lipoC3S3': 12.48, 'rot1': 51, 'rot0': 53, 'rot3': 9, 'rot2': 11, 'state': 'normal', 'yaw': -3.99, 'datetime': '2018-10-12 19:15:10.606173', 'mgs': 0, 'depth': 0.928, 'time': 8.47, 'pitch': 1.12, 'roll': 6.16}
{'lipoC2': 8.23, 'temp': 28.25, 'lipoC3S3': 12.52, 'rot1': 52, 'rot0': 54, 'rot3': 10, 'rot2': 12, 'state': 'normal', 'yaw': -3.78, 'datetime': '2018-10-12 19:15:10.704425', 'mgs': 0, 'depth': 1.004, 'time': 8.56, 'pitch': 0.73, 'roll': 6.02}
{'lipoC2': 8.23, 'temp': 28.25, 'lipoC3S3': 12.59, 'rot1': 53, 'rot0': 55, 'rot3': 10, 'rot2': 12, 'state': 'normal', 'yaw': -3.38, 'datetime': '2018-10-12 19:15:10.801268', 'mgs': 0, 'depth': 1.08, 'time': 8.66, 'pitch': 0.32, 'roll': 5.83}
{'lipoC2': 8.24, 'temp': 28.31, 'lipoC3S3': 12.58, 'rot1': 54, 'rot0': 56, 'rot3': 10, 'rot2': 12, 'state': 'normal', 'yaw': -2.88, 'datetime': '2018-10-12 19:15:10.899200', 'mgs': 0, 'depth': 1.157, 'time': 8.76, 'pitch': 0.07, 'roll': 5.69}
{'lipoC2': 8.23, 'temp': 28.31, 'lipoC3S3': 12.59, 'rot1': 56, 'rot0': 56, 'rot3': 10, 'rot2': 12, 'state': 'normal', 'yaw': -2.2, 'datetime': '2018-10-12 19:15:10.997949', 'mgs': 0, 'depth': 1.233, 'time': 8.86, 'pitch': 0.06, 'roll': 5.55}
{'lipoC2': 8.24, 'temp': 28.31, 'lipoC3S3': 12.59, 'rot1': 57, 'rot0': 57, 'rot3': 10, 'rot2': 12, 'state': 'normal', 'yaw': -1.37, 'datetime': '2018-10-12 19:15:11.096145', 'mgs': 0, 'depth': 1.08, 'time': 8.96, 'pitch': 0.28, 'roll': 5.32}
{'lipoC2': 8.23, 'temp': 28.31, 'lipoC3S3': 12.59, 'rot1': 58, 'rot0': 58, 'rot3': 10, 'rot2': 12, 'state': 'normal', 'yaw': -0.36, 'datetime': '2018-10-12 19:15:11.193215', 'mgs': 0, 'depth': 1.08, 'time': 9.06, 'pitch': 0.65, 'roll': 4.93}
{'lipoC2': 8.23, 'temp': 28.31, 'lipoC3S3': 12.59, 'rot1': 59, 'rot0': 59, 'rot3': 10, 'rot2': 12, 'state': 'normal', 'yaw': 0.74, 'datetime': '2018-10-12 19:15:11.290708', 'mgs': 0, 'depth': 1.08, 'time': 9.15, 'pitch': 1.07, 'roll': 4.47}
{'lipoC2': 8.23, 'temp': 28.25, 'lipoC3S3': 12.58, 'rot1': 60, 'rot0': 60, 'rot3': 10, 'rot2': 12, 'state': 'normal', 'yaw': 1.76, 'datetime': '2018-10-12 19:15:11.388029', 'mgs': 0, 'depth': 1.843, 'time': 9.25, 'pitch': 1.43, 'roll': 4.09}
{'lipoC2': 8.24, 'temp': 28.25, 'lipoC3S3': 12.59, 'rot1': 61, 'rot0': 61, 'rot3': 10, 'rot2': 12, 'state': 'normal', 'yaw': 2.7, 'datetime': '2018-10-12 19:15:11.485415', 'mgs': 0, 'depth': 1.08, 'time': 9.35, 'pitch': 1.79, 'roll': 4.08}
{'lipoC2': 8.23, 'temp': 28.25, 'lipoC3S3': 12.5, 'rot1': 63, 'rot0': 62, 'rot3': 10, 'rot2': 12, 'state': 'normal', 'yaw': 3.38, 'datetime': '2018-10-12 19:15:11.582926', 'mgs': 0, 'depth': 1.08, 'time': 9.44, 'pitch': 2.06, 'roll': 4.35}
{'lipoC2': 8.23, 'temp': 28.31, 'lipoC3S3': 12.51, 'rot1': 64, 'rot0': 63, 'rot3': 10, 'rot2': 12, 'state': 'normal', 'yaw': 3.8, 'datetime': '2018-10-12 19:15:11.680395', 'mgs': 0, 'depth': 1.08, 'time': 9.54, 'pitch': 2.23, 'roll': 4.5}
{'lipoC2': 8.24, 'temp': 28.31, 'lipoC3S3': 12.59, 'rot1': 65, 'rot0': 64, 'rot3': 10, 'rot2': 12, 'state': 'normal', 'yaw': 3.85, 'datetime': '2018-10-12 19:15:11.777780', 'mgs': 0, 'depth': 1.157, 'time': 9.64, 'pitch': 2.38, 'roll': 4.44}
{'lipoC2': 8.23, 'temp': 28.31, 'lipoC3S3': 12.59, 'rot1': 65, 'rot0': 66, 'rot3': 10, 'rot2': 12, 'state': 'normal', 'yaw': 3.5, 'datetime': '2018-10-12 19:15:11.875255', 'mgs': 0, 'depth': 1.157, 'time': 9.74, 'pitch': 2.42, 'roll': 4.25}
{'lipoC2': 8.23, 'temp': 28.31, 'lipoC3S3': 12.59, 'rot1': 66, 'rot0': 67, 'rot3': 10, 'rot2': 12, 'state': 'normal', 'yaw': 2.84, 'datetime': '2018-10-12 19:15:11.972645', 'mgs': 0, 'depth': 1.004, 'time': 9.84, 'pitch': 2.42, 'roll': 3.98}
{'lipoC2': 8.23, 'temp': 28.31, 'lipoC3S3': 12.59, 'rot1': 67, 'rot0': 68, 'rot3': 10, 'rot2': 12, 'state': 'normal', 'yaw': 2.04, 'datetime': '2018-10-12 19:15:12.071139', 'mgs': 0, 'depth': 1.233, 'time': 9.93, 'pitch': 2.3, 'roll': 3.77}
{'lipoC2': 8.23, 'temp': 28.31, 'lipoC3S3': 12.59, 'rot1': 68, 'rot0': 69, 'rot3': 10, 'rot2': 12, 'state': 'normal', 'yaw': 1.02, 'datetime': '2018-10-12 19:15:12.169826', 'mgs': 0, 'depth': 1.233, 'time': 10.03, 'pitch': 2.12, 'roll': 3.73}
{'lipoC2': 8.23, 'temp': 28.31, 'lipoC3S3': 12.56, 'rot1': 69, 'rot0': 70, 'rot3': 10, 'rot2': 12, 'state': 'normal', 'yaw': -0.1, 'datetime': '2018-10-12 19:15:12.268523', 'mgs': 0, 'depth': 1.157, 'time': 10.13, 'pitch': 1.97, 'roll': 3.97}
{'lipoC2': 8.23, 'temp': 28.31, 'lipoC3S3': 12.6, 'rot1': 70, 'rot0': 71, 'rot3': 10, 'rot2': 12, 'state': 'normal', 'yaw': -1.27, 'datetime': '2018-10-12 19:15:12.365798', 'mgs': 0, 'depth': 1.233, 'time': 10.23, 'pitch': 1.82, 'roll': 4.23}
{'lipoC2': 8.23, 'temp': 28.31, 'lipoC3S3': 12.59, 'rot1': 70, 'rot0': 73, 'rot3': 10, 'rot2': 12, 'state': 'normal', 'yaw': -2.51, 'datetime': '2018-10-12 19:15:12.463242', 'mgs': 0, 'depth': 1.92, 'time': 10.33, 'pitch': 1.62, 'roll': 4.2}
{'lipoC2': 8.24, 'temp': 28.31, 'lipoC3S3': 12.59, 'rot1': 71, 'rot0': 74, 'rot3': 10, 'rot2': 12, 'state': 'normal', 'yaw': -3.64, 'datetime': '2018-10-12 19:15:12.561756', 'mgs': 0, 'depth': 1.767, 'time': 10.42, 'pitch': 1.45, 'roll': 3.93}
{'lipoC2': 8.23, 'temp': 28.31, 'lipoC3S3': 12.59, 'rot1': 72, 'rot0': 74, 'rot3': 10, 'rot2': 12, 'state': 'normal', 'yaw': -4.51, 'datetime': '2018-10-12 19:15:12.657471', 'mgs': 0, 'depth': 1.385, 'time': 10.52, 'pitch': 1.29, 'roll': 3.49}
{'lipoC2': 8.24, 'temp': 28.31, 'lipoC3S3': 12.56, 'rot1': 74, 'rot0': 75, 'rot3': 10, 'rot2': 12, 'state': 'normal', 'yaw': -4.88, 'datetime': '2018-10-12 19:15:12.756081', 'mgs': 0, 'depth': 1.385, 'time': 10.62, 'pitch': 1.11, 'roll': 3.13}
{'lipoC2': 8.24, 'temp': 28.31, 'lipoC3S3': 12.56, 'rot1': 75, 'rot0': 76, 'rot3': 10, 'rot2': 12, 'state': 'normal', 'yaw': -4.9, 'datetime': '2018-10-12 19:15:12.853428', 'mgs': 0, 'depth': 1.538, 'time': 10.72, 'pitch': 0.83, 'roll': 2.93}
{'lipoC2': 8.23, 'temp': 28.31, 'lipoC3S3': 12.55, 'rot1': 76, 'rot0': 77, 'rot3': 10, 'rot2': 13, 'state': 'normal', 'yaw': -4.68, 'datetime': '2018-10-12 19:15:12.950806', 'mgs': 0, 'depth': 1.996, 'time': 10.82, 'pitch': 0.55, 'roll': 2.94}
{'lipoC2': 8.24, 'temp': 28.25, 'lipoC3S3': 12.54, 'rot1': 77, 'rot0': 78, 'rot3': 11, 'rot2': 13, 'state': 'normal', 'yaw': -4.32, 'datetime': '2018-10-12 19:15:13.049394', 'mgs': 0, 'depth': 2.301, 'time': 10.91, 'pitch': 0.36, 'roll': 3.1}
{'lipoC2': 8.24, 'temp': 28.25, 'lipoC3S3': 12.56, 'rot1': 78, 'rot0': 79, 'rot3': 11, 'rot2': 14, 'state': 'normal', 'yaw': -3.79, 'datetime': '2018-10-12 19:15:13.148060', 'mgs': 0, 'depth': 2.225, 'time': 11.01, 'pitch': 0.18, 'roll': 3.34}
{'lipoC2': 8.24, 'temp': 28.25, 'lipoC3S3': 12.52, 'rot1': 79, 'rot0': 80, 'rot3': 12, 'rot2': 14, 'state': 'normal', 'yaw': -3.11, 'datetime': '2018-10-12 19:15:13.245418', 'mgs': 0, 'depth': 1.996, 'time': 11.11, 'pitch': 0.08, 'roll': 3.59}
{'lipoC2': 8.24, 'temp': 28.25, 'lipoC3S3': 12.45, 'rot1': 80, 'rot0': 81, 'rot3': 12, 'rot2': 15, 'state': 'normal', 'yaw': -2.27, 'datetime': '2018-10-12 19:15:13.344411', 'mgs': 0, 'depth': 1.385, 'time': 11.21, 'pitch': 0.08, 'roll': 3.87}
{'lipoC2': 8.24, 'temp': 28.25, 'lipoC3S3': 12.51, 'rot1': 81, 'rot0': 82, 'rot3': 12, 'rot2': 15, 'state': 'normal', 'yaw': -1.42, 'datetime': '2018-10-12 19:15:13.443333', 'mgs': 0, 'depth': 1.462, 'time': 11.31, 'pitch': 0.2, 'roll': 4.26}
{'lipoC2': 8.23, 'temp': 28.25, 'lipoC3S3': 12.54, 'rot1': 82, 'rot0': 82, 'rot3': 13, 'rot2': 16, 'state': 'normal', 'yaw': -0.39, 'datetime': '2018-10-12 19:15:13.540709', 'mgs': 0, 'depth': 1.309, 'time': 11.4, 'pitch': 0.43, 'roll': 4.83}
{'lipoC2': 8.23, 'temp': 28.25, 'lipoC3S3': 12.59, 'rot1': 84, 'rot0': 83, 'rot3': 13, 'rot2': 16, 'state': 'normal', 'yaw': 0.73, 'datetime': '2018-10-12 19:15:13.638102', 'mgs': 0, 'depth': 1.309, 'time': 11.5, 'pitch': 0.72, 'roll': 5.36}
{'lipoC2': 8.23, 'temp': 28.25, 'lipoC3S3': 12.56, 'rot1': 85, 'rot0': 84, 'rot3': 13, 'rot2': 16, 'state': 'normal', 'yaw': 1.95, 'datetime': '2018-10-12 19:15:13.735444', 'mgs': 0, 'depth': 2.606, 'time': 11.6, 'pitch': 1.16, 'roll': 5.61}
{'lipoC2': 8.25, 'temp': 28.25, 'lipoC3S3': 12.55, 'rot1': 86, 'rot0': 85, 'rot3': 13, 'rot2': 16, 'state': 'normal', 'yaw': 2.87, 'datetime': '2018-10-12 19:15:13.832869', 'mgs': 0, 'depth': 1.691, 'time': 11.7, 'pitch': 1.57, 'roll': 5.7}
{'lipoC2': 8.24, 'temp': 28.25, 'lipoC3S3': 12.33, 'rot1': 87, 'rot0': 87, 'rot3': 14, 'rot2': 17, 'state': 'normal', 'yaw': 3.6, 'datetime': '2018-10-12 19:15:13.930186', 'mgs': 0, 'depth': 1.309, 'time': 11.79, 'pitch': 1.99, 'roll': 5.9}
{'lipoC2': 8.23, 'temp': 28.31, 'lipoC3S3': 12.48, 'rot1': 88, 'rot0': 88, 'rot3': 14, 'rot2': 17, 'state': 'normal', 'yaw': 4.13, 'datetime': '2018-10-12 19:15:14.027692', 'mgs': 0, 'depth': 1.233, 'time': 11.89, 'pitch': 2.23, 'roll': 6.16}
{'lipoC2': 8.24, 'temp': 28.31, 'lipoC3S3': 12.45, 'rot1': 89, 'rot0': 89, 'rot3': 14, 'rot2': 18, 'state': 'normal', 'yaw': 4.26, 'datetime': '2018-10-12 19:15:14.125558', 'mgs': 0, 'depth': 1.157, 'time': 11.99, 'pitch': 2.3, 'roll': 6.21}
{'lipoC2': 8.23, 'temp': 28.31, 'lipoC3S3': 12.56, 'rot1': 90, 'rot0': 90, 'rot3': 14, 'rot2': 18, 'state': 'normal', 'yaw': 4.05, 'datetime': '2018-10-12 19:15:14.224101', 'mgs': 0, 'depth': 1.538, 'time': 12.09, 'pitch': 2.33, 'roll': 6.2}
{'lipoC2': 8.23, 'temp': 28.25, 'lipoC3S3': 12.58, 'rot1': 91, 'rot0': 92, 'rot3': 14, 'rot2': 18, 'state': 'normal', 'yaw': 3.5, 'datetime': '2018-10-12 19:15:14.322831', 'mgs': 0, 'depth': 2.148, 'time': 12.19, 'pitch': 2.39, 'roll': 6.05}
{'lipoC2': 8.23, 'temp': 28.25, 'lipoC3S3': 12.59, 'rot1': 91, 'rot0': 93, 'rot3': 14, 'rot2': 18, 'state': 'normal', 'yaw': 2.69, 'datetime': '2018-10-12 19:15:14.420674', 'mgs': 0, 'depth': 1.157, 'time': 12.28, 'pitch': 2.47, 'roll': 5.82}
{'lipoC2': 8.23, 'temp': 28.25, 'lipoC3S3': 12.58, 'rot1': 92, 'rot0': 94, 'rot3': 14, 'rot2': 18, 'state': 'normal', 'yaw': 1.65, 'datetime': '2018-10-12 19:15:14.518173', 'mgs': 0, 'depth': 1.157, 'time': 12.38, 'pitch': 2.53, 'roll': 5.55}
{'lipoC2': 8.23, 'temp': 28.25, 'lipoC3S3': 12.58, 'rot1': 93, 'rot0': 95, 'rot3': 14, 'rot2': 18, 'state': 'normal', 'yaw': 0.56, 'datetime': '2018-10-12 19:15:14.615948', 'mgs': 0, 'depth': 1.157, 'time': 12.48, 'pitch': 2.53, 'roll': 5.18}
{'lipoC2': 8.23, 'temp': 28.25, 'lipoC3S3': 12.48, 'rot1': 94, 'rot0': 96, 'rot3': 14, 'rot2': 18, 'state': 'normal', 'yaw': -0.84, 'datetime': '2018-10-12 19:15:14.714588', 'mgs': 0, 'depth': 1.08, 'time': 12.58, 'pitch': 2.39, 'roll': 4.74}
{'lipoC2': 8.24, 'temp': 28.25, 'lipoC3S3': 12.5, 'rot1': 95, 'rot0': 97, 'rot3': 14, 'rot2': 18, 'state': 'normal', 'yaw': -2.4, 'datetime': '2018-10-12 19:15:14.813266', 'mgs': 0, 'depth': 1.157, 'time': 12.68, 'pitch': 2.09, 'roll': 4.27}
{'lipoC2': 8.24, 'temp': 28.25, 'lipoC3S3': 12.5, 'rot1': 96, 'rot0': 98, 'rot3': 14, 'rot2': 18, 'state': 'normal', 'yaw': -3.97, 'datetime': '2018-10-12 19:15:14.910757', 'mgs': 0, 'depth': 1.157, 'time': 12.78, 'pitch': 1.71, 'roll': 3.76}
{'lipoC2': 8.23, 'temp': 28.31, 'lipoC3S3': 12.56, 'rot1': 97, 'rot0': 99, 'rot3': 14, 'rot2': 18, 'state': 'normal', 'yaw': -5.01, 'datetime': '2018-10-12 19:15:15.008031', 'mgs': 0, 'depth': 1.157, 'time': 12.87, 'pitch': 1.33, 'roll': 3.35}
{'lipoC2': 8.23, 'temp': 28.31, 'lipoC3S3': 12.59, 'rot1': 98, 'rot0': 100, 'rot3': 14, 'rot2': 18, 'state': 'normal', 'yaw': -5.44, 'datetime': '2018-10-12 19:15:15.106399', 'mgs': 0, 'depth': 1.157, 'time': 12.97, 'pitch': 1.03, 'roll': 3.22}
{'lipoC2': 8.23, 'temp': 28.31, 'lipoC3S3': 12.59, 'rot1': 99, 'rot0': 101, 'rot3': 14, 'rot2': 18, 'state': 'normal', 'yaw': -5.52, 'datetime': '2018-10-12 19:15:15.205115', 'mgs': 0, 'depth': 1.233, 'time': 13.07, 'pitch': 0.79, 'roll': 3.06}
{'lipoC2': 8.23, 'temp': 28.31, 'lipoC3S3': 12.58, 'rot1': 100, 'rot0': 102, 'rot3': 14, 'rot2': 18, 'state': 'normal', 'yaw': -5.28, 'datetime': '2018-10-12 19:15:15.303219', 'mgs': 0, 'depth': 1.767, 'time': 13.17, 'pitch': 0.6, 'roll': 2.75}
{'lipoC2': 8.23, 'temp': 28.31, 'lipoC3S3': 12.52, 'rot1': 101, 'rot0': 102, 'rot3': 15, 'rot2': 18, 'state': 'normal', 'yaw': -4.82, 'datetime': '2018-10-12 19:15:15.400951', 'mgs': 0, 'depth': 2.148, 'time': 13.27, 'pitch': 0.45, 'roll': 2.36}
{'lipoC2': 8.24, 'temp': 28.25, 'lipoC3S3': 12.55, 'rot1': 102, 'rot0': 103, 'rot3': 15, 'rot2': 19, 'state': 'normal', 'yaw': -4.18, 'datetime': '2018-10-12 19:15:15.498498', 'mgs': 0, 'depth': 2.377, 'time': 13.36, 'pitch': 0.25, 'roll': 1.95}
{'lipoC2': 8.24, 'temp': 28.25, 'lipoC3S3': 12.55, 'rot1': 103, 'rot0': 104, 'rot3': 16, 'rot2': 19, 'state': 'normal', 'yaw': -3.51, 'datetime': '2018-10-12 19:15:15.596317', 'mgs': 0, 'depth': 1.767, 'time': 13.46, 'pitch': 0.1, 'roll': 1.79}
{'lipoC2': 8.24, 'temp': 28.25, 'lipoC3S3': 12.55, 'rot1': 104, 'rot0': 105, 'rot3': 16, 'rot2': 20, 'state': 'normal', 'yaw': -2.71, 'datetime': '2018-10-12 19:15:15.693639', 'mgs': 0, 'depth': 2.225, 'time': 13.56, 'pitch': 0.04, 'roll': 2.06}
{'lipoC2': 8.23, 'temp': 28.31, 'lipoC3S3': 12.55, 'rot1': 105, 'rot0': 106, 'rot3': 16, 'rot2': 20, 'state': 'normal', 'yaw': -1.85, 'datetime': '2018-10-12 19:15:15.791391', 'mgs': 0, 'depth': 1.385, 'time': 13.66, 'pitch': 0.06, 'roll': 2.75}
{'lipoC2': 8.23, 'temp': 28.31, 'lipoC3S3': 12.55, 'rot1': 106, 'rot0': 107, 'rot3': 17, 'rot2': 21, 'state': 'normal', 'yaw': -0.95, 'datetime': '2018-10-12 19:15:15.888841', 'mgs': 0, 'depth': 1.614, 'time': 13.75, 'pitch': 0.13, 'roll': 3.57}
{'lipoC2': 8.23, 'temp': 28.25, 'lipoC3S3': 12.55, 'rot1': 107, 'rot0': 107, 'rot3': 17, 'rot2': 21, 'state': 'normal', 'yaw': -0.15, 'datetime': '2018-10-12 19:15:15.986402', 'mgs': 0, 'depth': 1.691, 'time': 13.85, 'pitch': 0.17, 'roll': 4.16}
{'lipoC2': 8.23, 'temp': 28.25, 'lipoC3S3': 12.54, 'rot1': 109, 'rot0': 109, 'rot3': 18, 'rot2': 22, 'state': 'normal', 'yaw': 0.76, 'datetime': '2018-10-12 19:15:16.084101', 'mgs': 0, 'depth': 1.691, 'time': 13.95, 'pitch': 0.26, 'roll': 4.51}
{'lipoC2': 8.24, 'temp': 28.25, 'lipoC3S3': 12.54, 'rot1': 110, 'rot0': 110, 'rot3': 18, 'rot2': 22, 'state': 'normal', 'yaw': 1.44, 'datetime': '2018-10-12 19:15:16.181701', 'mgs': 0, 'depth': 1.767, 'time': 14.05, 'pitch': 0.37, 'roll': 4.77}
{'lipoC2': 8.23, 'temp': 28.25, 'lipoC3S3': 12.52, 'rot1': 111, 'rot0': 111, 'rot3': 19, 'rot2': 23, 'state': 'normal', 'yaw': 1.89, 'datetime': '2018-10-12 19:15:16.279547', 'mgs': 0, 'depth': 1.233, 'time': 14.15, 'pitch': 0.47, 'roll': 5.1}
{'lipoC2': 8.24, 'temp': 28.25, 'lipoC3S3': 12.54, 'rot1': 112, 'rot0': 112, 'rot3': 19, 'rot2': 23, 'state': 'normal', 'yaw': 2.11, 'datetime': '2018-10-12 19:15:16.378539', 'mgs': 0, 'depth': 2.301, 'time': 14.24, 'pitch': 0.49, 'roll': 5.62}
{'lipoC2': 8.23, 'temp': 28.31, 'lipoC3S3': 12.55, 'rot1': 113, 'rot0': 114, 'rot3': 19, 'rot2': 24, 'state': 'normal', 'yaw': 1.96, 'datetime': '2018-10-12 19:15:16.477274', 'mgs': 0, 'depth': 1.309, 'time': 14.34, 'pitch': 0.48, 'roll': 6.32}
{'lipoC2': 8.24, 'temp': 28.31, 'lipoC3S3': 12.55, 'rot1': 113, 'rot0': 115, 'rot3': 20, 'rot2': 24, 'state': 'normal', 'yaw': 1.44, 'datetime': '2018-10-12 19:15:16.576307', 'mgs': 0, 'depth': 1.309, 'time': 14.44, 'pitch': 0.35, 'roll': 7.07}
{'lipoC2': 8.24, 'temp': 28.31, 'lipoC3S3': 12.55, 'rot1': 114, 'rot0': 116, 'rot3': 20, 'rot2': 24, 'state': 'normal', 'yaw': 0.68, 'datetime': '2018-10-12 19:15:16.673933', 'mgs': 0, 'depth': 1.233, 'time': 14.54, 'pitch': 0.22, 'roll': 7.5}
{'lipoC2': 8.24, 'temp': 28.31, 'lipoC3S3': 12.55, 'rot1': 115, 'rot0': 117, 'rot3': 20, 'rot2': 24, 'state': 'normal', 'yaw': -0.24, 'datetime': '2018-10-12 19:15:16.771317', 'mgs': 0, 'depth': 1.157, 'time': 14.64, 'pitch': 0.19, 'roll': 7.41}
{'lipoC2': 8.23, 'temp': 28.31, 'lipoC3S3': 12.51, 'rot1': 116, 'rot0': 118, 'rot3': 20, 'rot2': 24, 'state': 'normal', 'yaw': -1.23, 'datetime': '2018-10-12 19:15:16.869960', 'mgs': 0, 'depth': 1.233, 'time': 14.74, 'pitch': 0.28, 'roll': 7.0}
{'lipoC2': 8.23, 'temp': 28.31, 'lipoC3S3': 12.56, 'rot1': 117, 'rot0': 119, 'rot3': 20, 'rot2': 24, 'state': 'normal', 'yaw': -2.47, 'datetime': '2018-10-12 19:15:16.968539', 'mgs': 0, 'depth': 1.614, 'time': 14.84, 'pitch': 0.55, 'roll': 6.33}
{'lipoC2': 8.24, 'temp': 28.31, 'lipoC3S3': 12.58, 'rot1': 118, 'rot0': 120, 'rot3': 20, 'rot2': 24, 'state': 'normal', 'yaw': -3.44, 'datetime': '2018-10-12 19:15:17.067386', 'mgs': 0, 'depth': 1.309, 'time': 14.94, 'pitch': 0.91, 'roll': 5.71}
{'lipoC2': 8.23, 'temp': 28.25, 'lipoC3S3': 12.58, 'rot1': 119, 'rot0': 121, 'rot3': 20, 'rot2': 24, 'state': 'normal', 'yaw': -3.91, 'datetime': '2018-10-12 19:15:17.165889', 'mgs': 0, 'depth': 1.691, 'time': 15.03, 'pitch': 1.24, 'roll': 5.34}
{'lipoC2': 8.23, 'temp': 28.25, 'lipoC3S3': 12.58, 'rot1': 120, 'rot0': 122, 'rot3': 20, 'rot2': 24, 'state': 'normal', 'yaw': -3.98, 'datetime': '2018-10-12 19:15:17.263410', 'mgs': 0, 'depth': 1.767, 'time': 15.13, 'pitch': 1.49, 'roll': 5.19}
{'lipoC2': 8.24, 'temp': 28.25, 'lipoC3S3': 12.58, 'rot1': 121, 'rot0': 123, 'rot3': 20, 'rot2': 24, 'state': 'normal', 'yaw': -3.8, 'datetime': '2018-10-12 19:15:17.361079', 'mgs': 0, 'depth': 1.309, 'time': 15.23, 'pitch': 1.62, 'roll': 5.07}
{'lipoC2': 8.24, 'temp': 28.31, 'lipoC3S3': 12.52, 'rot1': 122, 'rot0': 123, 'rot3': 20, 'rot2': 24, 'state': 'normal', 'yaw': -3.47, 'datetime': '2018-10-12 19:15:17.459902', 'mgs': 0, 'depth': 1.233, 'time': 15.33, 'pitch': 1.62, 'roll': 4.8}
{'lipoC2': 8.24, 'temp': 28.31, 'lipoC3S3': 12.58, 'rot1': 123, 'rot0': 124, 'rot3': 20, 'rot2': 24, 'state': 'normal', 'yaw': -2.93, 'datetime': '2018-10-12 19:15:17.558832', 'mgs': 0, 'depth': 1.614, 'time': 15.43, 'pitch': 1.59, 'roll': 4.34}
{'lipoC2': 8.23, 'temp': 28.31, 'lipoC3S3': 12.59, 'rot1': 124, 'rot0': 125, 'rot3': 20, 'rot2': 24, 'state': 'normal', 'yaw': -2.23, 'datetime': '2018-10-12 19:15:17.656580', 'mgs': 0, 'depth': 1.767, 'time': 15.52, 'pitch': 1.54, 'roll': 3.91}
{'lipoC2': 8.24, 'temp': 28.31, 'lipoC3S3': 12.54, 'rot1': 125, 'rot0': 126, 'rot3': 20, 'rot2': 24, 'state': 'normal', 'yaw': -1.45, 'datetime': '2018-10-12 19:15:17.754159', 'mgs': 0, 'depth': 2.301, 'time': 15.62, 'pitch': 1.55, 'roll': 3.46}
{'lipoC2': 8.23, 'temp': 28.31, 'lipoC3S3': 12.55, 'rot1': 126, 'rot0': 127, 'rot3': 20, 'rot2': 25, 'state': 'normal', 'yaw': -0.72, 'datetime': '2018-10-12 19:15:17.851913', 'mgs': 0, 'depth': 1.767, 'time': 15.72, 'pitch': 1.51, 'roll': 3.23}
{'lipoC2': 8.23, 'temp': 28.31, 'lipoC3S3': 12.55, 'rot1': 127, 'rot0': 128, 'rot3': 21, 'rot2': 25, 'state': 'normal', 'yaw': 0.11, 'datetime': '2018-10-12 19:15:17.949228', 'mgs': 0, 'depth': 1.843, 'time': 15.82, 'pitch': 1.46, 'roll': 3.28}
{'lipoC2': 8.23, 'temp': 28.31, 'lipoC3S3': 12.55, 'rot1': 129, 'rot0': 129, 'rot3': 21, 'rot2': 26, 'state': 'normal', 'yaw': 0.91, 'datetime': '2018-10-12 19:15:18.047001', 'mgs': 0, 'depth': 1.767, 'time': 15.91, 'pitch': 1.36, 'roll': 3.52}
{'lipoC2': 8.23, 'temp': 28.25, 'lipoC3S3': 12.54, 'rot1': 130, 'rot0': 130, 'rot3': 22, 'rot2': 27, 'state': 'normal', 'yaw': 1.65, 'datetime': '2018-10-12 19:15:18.144479', 'mgs': 0, 'depth': 1.691, 'time': 16.01, 'pitch': 1.18, 'roll': 3.87}
{'lipoC2': 8.23, 'temp': 28.25, 'lipoC3S3': 12.52, 'rot1': 131, 'rot0': 131, 'rot3': 22, 'rot2': 27, 'state': 'normal', 'yaw': 2.07, 'datetime': '2018-10-12 19:15:18.242248', 'mgs': 0, 'depth': 1.309, 'time': 16.11, 'pitch': 0.92, 'roll': 4.31}
{'lipoC2': 8.23, 'temp': 28.25, 'lipoC3S3': 12.54, 'rot1': 132, 'rot0': 132, 'rot3': 22, 'rot2': 27, 'state': 'normal', 'yaw': 2.24, 'datetime': '2018-10-12 19:15:18.339983', 'mgs': 0, 'depth': 1.385, 'time': 16.21, 'pitch': 0.54, 'roll': 4.98}
{'lipoC2': 8.23, 'temp': 28.31, 'lipoC3S3': 12.54, 'rot1': 133, 'rot0': 133, 'rot3': 22, 'rot2': 27, 'state': 'normal', 'yaw': 2.16, 'datetime': '2018-10-12 19:15:18.437446', 'mgs': 0, 'depth': 1.309, 'time': 16.31, 'pitch': 0.22, 'roll': 5.64}
{'lipoC2': 8.23, 'temp': 28.31, 'lipoC3S3': 12.54, 'rot1': 134, 'rot0': 134, 'rot3': 22, 'rot2': 27, 'state': 'normal', 'yaw': 1.7, 'datetime': '2018-10-12 19:15:18.535012', 'mgs': 0, 'depth': 1.385, 'time': 16.4, 'pitch': 0.03, 'roll': 6.05}
{'lipoC2': 8.23, 'temp': 28.25, 'lipoC3S3': 12.54, 'rot1': 135, 'rot0': 135, 'rot3': 24, 'rot2': 28, 'state': 'normal', 'yaw': 0.98, 'datetime': '2018-10-12 19:15:18.633442', 'mgs': 0, 'depth': 1.538, 'time': 16.5, 'pitch': 0.01, 'roll': 6.24}
{'lipoC2': 8.23, 'temp': 28.25, 'lipoC3S3': 12.51, 'rot1': 136, 'rot0': 137, 'rot3': 24, 'rot2': 28, 'state': 'normal', 'yaw': -0.13, 'datetime': '2018-10-12 19:15:18.732071', 'mgs': 0, 'depth': 1.462, 'time': 16.6, 'pitch': -0.01, 'roll': 6.41}
{'lipoC2': 8.24, 'temp': 28.25, 'lipoC3S3': 12.47, 'rot1': 137, 'rot0': 138, 'rot3': 24, 'rot2': 29, 'state': 'normal', 'yaw': -1.33, 'datetime': '2018-10-12 19:15:18.830953', 'mgs': 0, 'depth': 1.462, 'time': 16.7, 'pitch': -0.04, 'roll': 6.69}
{'lipoC2': 8.23, 'temp': 28.25, 'lipoC3S3': 12.52, 'rot1': 138, 'rot0': 139, 'rot3': 25, 'rot2': 29, 'state': 'normal', 'yaw': -2.5, 'datetime': '2018-10-12 19:15:18.929721', 'mgs': 0, 'depth': 3.217, 'time': 16.8, 'pitch': -0.05, 'roll': 7.06}
{'lipoC2': 8.23, 'temp': 28.25, 'lipoC3S3': 12.55, 'rot1': 139, 'rot0': 140, 'rot3': 25, 'rot2': 30, 'state': 'normal', 'yaw': -3.67, 'datetime': '2018-10-12 19:15:19.027365', 'mgs': 0, 'depth': 1.843, 'time': 16.9, 'pitch': -0.09, 'roll': 7.53}
{'lipoC2': 8.23, 'temp': 28.25, 'lipoC3S3': 12.55, 'rot1': 140, 'rot0': 141, 'rot3': 26, 'rot2': 30, 'state': 'normal', 'yaw': -4.52, 'datetime': '2018-10-12 19:15:19.124905', 'mgs': 0, 'depth': 1.843, 'time': 16.99, 'pitch': -0.21, 'roll': 8.02}
{'lipoC2': 8.23, 'temp': 28.25, 'lipoC3S3': 12.55, 'rot1': 141, 'rot0': 142, 'rot3': 26, 'rot2': 31, 'state': 'normal', 'yaw': -4.97, 'datetime': '2018-10-12 19:15:19.223495', 'mgs': 0, 'depth': 1.767, 'time': 17.09, 'pitch': -0.4, 'roll': 8.38}
{'lipoC2': 8.23, 'temp': 28.25, 'lipoC3S3': 12.43, 'rot1': 142, 'rot0': 143, 'rot3': 27, 'rot2': 31, 'state': 'normal', 'yaw': -5.14, 'datetime': '2018-10-12 19:15:19.322421', 'mgs': 0, 'depth': 1.462, 'time': 17.19, 'pitch': -0.61, 'roll': 8.6}
{'lipoC2': 8.23, 'temp': 28.25, 'lipoC3S3': 12.54, 'rot1': 144, 'rot0': 143, 'rot3': 27, 'rot2': 33, 'state': 'normal', 'yaw': -5.07, 'datetime': '2018-10-12 19:15:19.421133', 'mgs': 0, 'depth': 2.377, 'time': 17.29, 'pitch': -0.81, 'roll': 8.59}
{'lipoC2': 8.24, 'temp': 28.25, 'lipoC3S3': 12.48, 'rot1': 145, 'rot0': 144, 'rot3': 27, 'rot2': 33, 'state': 'normal', 'yaw': -4.74, 'datetime': '2018-10-12 19:15:19.519576', 'mgs': 0, 'depth': 1.309, 'time': 17.39, 'pitch': -0.95, 'roll': 8.43}
{'lipoC2': 8.23, 'temp': 28.25, 'lipoC3S3': 12.48, 'rot1': 146, 'rot0': 145, 'rot3': 28, 'rot2': 34, 'state': 'normal', 'yaw': -4.22, 'datetime': '2018-10-12 19:15:19.617164', 'mgs': 0, 'depth': 1.462, 'time': 17.49, 'pitch': -0.97, 'roll': 8.25}
{'lipoC2': 8.24, 'temp': 28.25, 'lipoC3S3': 12.54, 'rot1': 147, 'rot0': 146, 'rot3': 29, 'rot2': 34, 'state': 'normal', 'yaw': -3.59, 'datetime': '2018-10-12 19:15:19.715099', 'mgs': 0, 'depth': 2.225, 'time': 17.58, 'pitch': -0.78, 'roll': 8.02}
{'lipoC2': 8.23, 'temp': 28.25, 'lipoC3S3': 12.5, 'rot1': 148, 'rot0': 147, 'rot3': 29, 'rot2': 35, 'state': 'normal', 'yaw': -2.87, 'datetime': '2018-10-12 19:15:19.814016', 'mgs': 0, 'depth': 1.157, 'time': 17.68, 'pitch': -0.47, 'roll': 7.66}
{'lipoC2': 8.24, 'temp': 28.31, 'lipoC3S3': 12.48, 'rot1': 149, 'rot0': 148, 'rot3': 29, 'rot2': 35, 'state': 'normal', 'yaw': -1.9, 'datetime': '2018-10-12 19:15:19.912739', 'mgs': 0, 'depth': 1.767, 'time': 17.78, 'pitch': -0.08, 'roll': 7.05}
{'lipoC2': 8.23, 'temp': 28.31, 'lipoC3S3': 12.52, 'rot1': 150, 'rot0': 149, 'rot3': 30, 'rot2': 36, 'state': 'normal', 'yaw': -0.75, 'datetime': '2018-10-12 19:15:20.010291', 'mgs': 0, 'depth': 1.996, 'time': 17.88, 'pitch': 0.23, 'roll': 6.37}
{'lipoC2': 8.23, 'temp': 28.31, 'lipoC3S3': 12.52, 'rot1': 151, 'rot0': 149, 'rot3': 31, 'rot2': 37, 'state': 'normal', 'yaw': 0.56, 'datetime': '2018-10-12 19:15:20.108210', 'mgs': 0, 'depth': 2.225, 'time': 17.98, 'pitch': 0.42, 'roll': 5.76}
{'lipoC2': 8.23, 'temp': 28.31, 'lipoC3S3': 12.54, 'rot1': 152, 'rot0': 150, 'rot3': 31, 'rot2': 37, 'state': 'normal', 'yaw': 1.84, 'datetime': '2018-10-12 19:15:20.205631', 'mgs': 0, 'depth': 1.462, 'time': 18.08, 'pitch': 0.5, 'roll': 5.22}
{'lipoC2': 8.23, 'temp': 28.31, 'lipoC3S3': 12.54, 'rot1': 153, 'rot0': 151, 'rot3': 31, 'rot2': 38, 'state': 'normal', 'yaw': 3.08, 'datetime': '2018-10-12 19:15:20.303521', 'mgs': 0, 'depth': 1.462, 'time': 18.17, 'pitch': 0.48, 'roll': 4.77}
{'lipoC2': 8.23, 'temp': 28.25, 'lipoC3S3': 12.54, 'rot1': 155, 'rot0': 153, 'rot3': 32, 'rot2': 38, 'state': 'normal', 'yaw': 4.02, 'datetime': '2018-10-12 19:15:20.400936', 'mgs': 0, 'depth': 0.394, 'time': 18.27, 'pitch': 0.4, 'roll': 4.46}
{'lipoC2': 8.23, 'temp': 28.25, 'lipoC3S3': 12.54, 'rot1': 155, 'rot0': 154, 'rot3': 32, 'rot2': 39, 'state': 'normal', 'yaw': 4.77, 'datetime': '2018-10-12 19:15:20.498422', 'mgs': 0, 'depth': 0.928, 'time': 18.37, 'pitch': 0.36, 'roll': 4.33}
{'lipoC2': 8.23, 'temp': 28.25, 'lipoC3S3': 12.5, 'rot1': 156, 'rot0': 155, 'rot3': 33, 'rot2': 39, 'state': 'normal', 'yaw': 5.08, 'datetime': '2018-10-12 19:15:20.596214', 'mgs': 0, 'depth': 1.004, 'time': 18.47, 'pitch': 0.49, 'roll': 4.34}
{'lipoC2': 8.23, 'temp': 28.25, 'lipoC3S3': 12.5, 'rot1': 157, 'rot0': 156, 'rot3': 33, 'rot2': 40, 'state': 'normal', 'yaw': 5.07, 'datetime': '2018-10-12 19:15:20.693825', 'mgs': 0, 'depth': 0.928, 'time': 18.56, 'pitch': 0.68, 'roll': 4.39}
{'lipoC2': 8.23, 'temp': 28.31, 'lipoC3S3': 12.45, 'rot1': 158, 'rot0': 157, 'rot3': 33, 'rot2': 40, 'state': 'normal', 'yaw': 4.7, 'datetime': '2018-10-12 19:15:20.791478', 'mgs': 0, 'depth': 0.928, 'time': 18.66, 'pitch': 0.72, 'roll': 4.21}
{'lipoC2': 8.24, 'temp': 28.31, 'lipoC3S3': 12.47, 'rot1': 159, 'rot0': 158, 'rot3': 33, 'rot2': 40, 'state': 'normal', 'yaw': 3.99, 'datetime': '2018-10-12 19:15:20.889087', 'mgs': 0, 'depth': 0.928, 'time': 18.76, 'pitch': 0.59, 'roll': 3.84}
{'lipoC2': 8.23, 'temp': 28.31, 'lipoC3S3': 12.56, 'rot1': 159, 'rot0': 159, 'rot3': 33, 'rot2': 40, 'state': 'normal', 'yaw': 3.01, 'datetime': '2018-10-12 19:15:20.987139', 'mgs': 0, 'depth': 1.08, 'time': 18.86, 'pitch': 0.27, 'roll': 3.33}
{'lipoC2': 8.23, 'temp': 28.31, 'lipoC3S3': 12.51, 'rot1': 160, 'rot0': 160, 'rot3': 33, 'rot2': 40, 'state': 'normal', 'yaw': 1.94, 'datetime': '2018-10-12 19:15:21.086005', 'mgs': 0, 'depth': 1.004, 'time': 18.96, 'pitch': -0.18, 'roll': 3.0}
{'lipoC2': 8.24, 'temp': 28.31, 'lipoC3S3': 12.55, 'rot1': 161, 'rot0': 162, 'rot3': 33, 'rot2': 40, 'state': 'normal', 'yaw': 0.59, 'datetime': '2018-10-12 19:15:21.184751', 'mgs': 0, 'depth': 1.385, 'time': 19.06, 'pitch': -0.69, 'roll': 3.19}
{'lipoC2': 8.24, 'temp': 28.31, 'lipoC3S3': 12.52, 'rot1': 162, 'rot0': 163, 'rot3': 33, 'rot2': 40, 'state': 'normal', 'yaw': -0.89, 'datetime': '2018-10-12 19:15:21.283447', 'mgs': 0, 'depth': 2.225, 'time': 19.15, 'pitch': -1.03, 'roll': 3.69}
{'lipoC2': 8.24, 'temp': 28.31, 'lipoC3S3': 12.52, 'rot1': 163, 'rot0': 164, 'rot3': 34, 'rot2': 40, 'state': 'normal', 'yaw': -2.45, 'datetime': '2018-10-12 19:15:21.381122', 'mgs': 0, 'depth': 2.301, 'time': 19.25, 'pitch': -1.17, 'roll': 4.22}
{'lipoC2': 8.24, 'temp': 28.31, 'lipoC3S3': 12.52, 'rot1': 164, 'rot0': 165, 'rot3': 34, 'rot2': 41, 'state': 'normal', 'yaw': -3.88, 'datetime': '2018-10-12 19:15:21.478564', 'mgs': 0, 'depth': 2.53, 'time': 19.35, 'pitch': -1.18, 'roll': 4.77}
{'lipoC2': 8.23, 'temp': 28.25, 'lipoC3S3': 12.52, 'rot1': 165, 'rot0': 166, 'rot3': 35, 'rot2': 41, 'state': 'normal', 'yaw': -4.96, 'datetime': '2018-10-12 19:15:21.577539', 'mgs': 0, 'depth': 1.691, 'time': 19.45, 'pitch': -1.14, 'roll': 5.3}
{'lipoC2': 8.23, 'temp': 28.25, 'lipoC3S3': 12.46, 'rot1': 166, 'rot0': 167, 'rot3': 35, 'rot2': 42, 'state': 'normal', 'yaw': -5.87, 'datetime': '2018-10-12 19:15:21.676187', 'mgs': 0, 'depth': 1.157, 'time': 19.55, 'pitch': -1.05, 'roll': 5.92}
{'lipoC2': 8.24, 'temp': 28.25, 'lipoC3S3': 12.47, 'rot1': 168, 'rot0': 168, 'rot3': 36, 'rot2': 42, 'state': 'normal', 'yaw': -6.29, 'datetime': '2018-10-12 19:15:21.775073', 'mgs': 0, 'depth': 1.767, 'time': 19.65, 'pitch': -0.89, 'roll': 6.43}
{'lipoC2': 8.23, 'temp': 28.25, 'lipoC3S3': 12.55, 'rot1': 169, 'rot0': 169, 'rot3': 36, 'rot2': 43, 'state': 'normal', 'yaw': -6.2, 'datetime': '2018-10-12 19:15:21.873316', 'mgs': 0, 'depth': 1.233, 'time': 19.74, 'pitch': -0.75, 'roll': 6.63}
{'lipoC2': 8.23, 'temp': 28.25, 'lipoC3S3': 12.55, 'rot1': 170, 'rot0': 170, 'rot3': 36, 'rot2': 43, 'state': 'normal', 'yaw': -5.74, 'datetime': '2018-10-12 19:15:21.970830', 'mgs': 0, 'depth': 1.157, 'time': 19.84, 'pitch': -0.74, 'roll': 6.53}
{'lipoC2': 8.24, 'temp': 28.31, 'lipoC3S3': 12.52, 'rot1': 171, 'rot0': 171, 'rot3': 37, 'rot2': 44, 'state': 'normal', 'yaw': -5.06, 'datetime': '2018-10-12 19:15:22.068697', 'mgs': 0, 'depth': 1.843, 'time': 19.94, 'pitch': -0.81, 'roll': 6.23}
{'lipoC2': 8.23, 'temp': 28.31, 'lipoC3S3': 12.54, 'rot1': 172, 'rot0': 172, 'rot3': 38, 'rot2': 44, 'state': 'normal', 'yaw': -4.08, 'datetime': '2018-10-12 19:15:22.167619', 'mgs': 0, 'depth': 1.614, 'time': 20.04, 'pitch': -0.91, 'roll': 5.82}
{'lipoC2': 8.23, 'temp': 28.25, 'lipoC3S3': 12.55, 'rot1': 173, 'rot0': 172, 'rot3': 38, 'rot2': 45, 'state': 'normal', 'yaw': -2.87, 'datetime': '2018-10-12 19:15:22.266327', 'mgs': 0, 'depth': 1.157, 'time': 20.14, 'pitch': -0.86, 'roll': 5.47}
{'lipoC2': 8.23, 'temp': 28.25, 'lipoC3S3': 12.55, 'rot1': 174, 'rot0': 173, 'rot3': 38, 'rot2': 46, 'state': 'normal', 'yaw': -1.41, 'datetime': '2018-10-12 19:15:22.363830', 'mgs': 0, 'depth': 1.157, 'time': 20.24, 'pitch': -0.62, 'roll': 5.33}
{'lipoC2': 8.23, 'temp': 28.25, 'lipoC3S3': 12.56, 'rot1': 175, 'rot0': 174, 'rot3': 39, 'rot2': 46, 'state': 'normal', 'yaw': 0.21, 'datetime': '2018-10-12 19:15:22.461369', 'mgs': 0, 'depth': 1.157, 'time': 20.33, 'pitch': -0.29, 'roll': 5.33}
{'lipoC2': 8.23, 'temp': 28.25, 'lipoC3S3': 12.45, 'rot1': 176, 'rot0': 175, 'rot3': 39, 'rot2': 46, 'state': 'normal', 'yaw': 1.82, 'datetime': '2018-10-12 19:15:22.559232', 'mgs': 0, 'depth': 1.157, 'time': 20.43, 'pitch': -0.07, 'roll': 5.31}
{'lipoC2': 8.23, 'temp': 28.25, 'lipoC3S3': 12.43, 'rot1': 177, 'rot0': 176, 'rot3': 39, 'rot2': 46, 'state': 'normal', 'yaw': 3.42, 'datetime': '2018-10-12 19:15:22.656830', 'mgs': 0, 'depth': 1.157, 'time': 20.53, 'pitch': 0.09, 'roll': 5.31}
{'lipoC2': 8.23, 'temp': 28.31, 'lipoC3S3': 12.43, 'rot1': 178, 'rot0': 178, 'rot3': 39, 'rot2': 46, 'state': 'normal', 'yaw': 4.68, 'datetime': '2018-10-12 19:15:22.754395', 'mgs': 0, 'depth': 1.08, 'time': 20.63, 'pitch': 0.18, 'roll': 5.15}
{'lipoC2': 8.24, 'temp': 28.31, 'lipoC3S3': 12.5, 'rot1': 179, 'rot0': 179, 'rot3': 39, 'rot2': 46, 'state': 'normal', 'yaw': 5.69, 'datetime': '2018-10-12 19:15:22.852120', 'mgs': 0, 'depth': 1.08, 'time': 20.72, 'pitch': 0.28, 'roll': 4.75}
{'lipoC2': 8.24, 'temp': 28.31, 'lipoC3S3': 12.55, 'rot1': 180, 'rot0': 180, 'rot3': 39, 'rot2': 46, 'state': 'normal', 'yaw': 6.24, 'datetime': '2018-10-12 19:15:22.949747', 'mgs': 0, 'depth': 1.614, 'time': 20.82, 'pitch': 0.41, 'roll': 4.31}
{'lipoC2': 8.24, 'temp': 28.25, 'lipoC3S3': 12.51, 'rot1': 181, 'rot0': 181, 'rot3': 39, 'rot2': 46, 'state': 'normal', 'yaw': 6.41, 'datetime': '2018-10-12 19:15:23.047374', 'mgs': 0, 'depth': 1.767, 'time': 20.92, 'pitch': 0.63, 'roll': 3.92}
{'lipoC2': 8.24, 'temp': 28.25, 'lipoC3S3': 12.51, 'rot1': 182, 'rot0': 182, 'rot3': 39, 'rot2': 47, 'state': 'normal', 'yaw': 6.18, 'datetime': '2018-10-12 19:15:23.145165', 'mgs': 0, 'depth': 1.843, 'time': 21.02, 'pitch': 0.84, 'roll': 3.78}
{'lipoC2': 8.24, 'temp': 28.25, 'lipoC3S3': 12.52, 'rot1': 183, 'rot0': 183, 'rot3': 40, 'rot2': 47, 'state': 'normal', 'yaw': 5.66, 'datetime': '2018-10-12 19:15:23.243056', 'mgs': 0, 'depth': 2.072, 'time': 21.11, 'pitch': 1.03, 'roll': 3.94}
{'lipoC2': 8.24, 'temp': 28.25, 'lipoC3S3': 12.46, 'rot1': 184, 'rot0': 184, 'rot3': 40, 'rot2': 48, 'state': 'normal', 'yaw': 5.04, 'datetime': '2018-10-12 19:15:23.341074', 'mgs': 0, 'depth': 1.08, 'time': 21.21, 'pitch': 1.1, 'roll': 4.21}
{'lipoC2': 8.23, 'temp': 28.25, 'lipoC3S3': 12.52, 'rot1': 184, 'rot0': 185, 'rot3': 41, 'rot2': 48, 'state': 'normal', 'yaw': 4.27, 'datetime': '2018-10-12 19:15:23.439823', 'mgs': 0, 'depth': 1.614, 'time': 21.31, 'pitch': 1.04, 'roll': 4.46}
{'lipoC2': 8.23, 'temp': 28.25, 'lipoC3S3': 12.51, 'rot1': 185, 'rot0': 187, 'rot3': 41, 'rot2': 49, 'state': 'normal', 'yaw': 3.46, 'datetime': '2018-10-12 19:15:23.538616', 'mgs': 0, 'depth': 1.157, 'time': 21.41, 'pitch': 0.83, 'roll': 4.5}
{'lipoC2': 8.23, 'temp': 28.25, 'lipoC3S3': 12.5, 'rot1': 186, 'rot0': 188, 'rot3': 42, 'rot2': 49, 'state': 'normal', 'yaw': 2.56, 'datetime': '2018-10-12 19:15:23.637287', 'mgs': 0, 'depth': 1.157, 'time': 21.51, 'pitch': 0.57, 'roll': 4.47}
{'lipoC2': 8.23, 'temp': 28.25, 'lipoC3S3': 12.47, 'rot1': 187, 'rot0': 189, 'rot3': 42, 'rot2': 49, 'state': 'normal', 'yaw': 1.6, 'datetime': '2018-10-12 19:15:23.734906', 'mgs': 0, 'depth': 1.233, 'time': 21.61, 'pitch': 0.42, 'roll': 4.17}
{'lipoC2': 8.23, 'temp': 28.25, 'lipoC3S3': 12.47, 'rot1': 188, 'rot0': 190, 'rot3': 42, 'rot2': 49, 'state': 'normal', 'yaw': 0.58, 'datetime': '2018-10-12 19:15:23.832507', 'mgs': 0, 'depth': 1.157, 'time': 21.7, 'pitch': 0.51, 'roll': 3.72}
{'lipoC2': 8.24, 'temp': 28.25, 'lipoC3S3': 12.55, 'rot1': 188, 'rot0': 191, 'rot3': 42, 'rot2': 49, 'state': 'normal', 'yaw': -0.36, 'datetime': '2018-10-12 19:15:23.931140', 'mgs': 0, 'depth': 1.233, 'time': 21.81, 'pitch': 0.86, 'roll': 3.38}
{'lipoC2': 8.23, 'temp': 28.25, 'lipoC3S3': 12.55, 'rot1': 189, 'rot0': 193, 'rot3': 42, 'rot2': 49, 'state': 'normal', 'yaw': -1.45, 'datetime': '2018-10-12 19:15:24.030042', 'mgs': 0, 'depth': 1.233, 'time': 21.9, 'pitch': 1.4, 'roll': 3.21}
{'lipoC2': 8.23, 'temp': 28.25, 'lipoC3S3': 12.52, 'rot1': 190, 'rot0': 194, 'rot3': 42, 'rot2': 49, 'state': 'normal', 'yaw': -2.46, 'datetime': '2018-10-12 19:15:24.128672', 'mgs': 0, 'depth': 1.157, 'time': 22.0, 'pitch': 1.87, 'roll': 3.29}
{'lipoC2': 8.24, 'temp': 28.25, 'lipoC3S3': 12.42, 'rot1': 192, 'rot0': 195, 'rot3': 42, 'rot2': 49, 'state': 'normal', 'yaw': -3.32, 'datetime': '2018-10-12 19:15:24.226542', 'mgs': 0, 'depth': 1.233, 'time': 22.1, 'pitch': 2.17, 'roll': 3.46}
{'lipoC2': 8.24, 'temp': 28.25, 'lipoC3S3': 12.47, 'rot1': 193, 'rot0': 196, 'rot3': 42, 'rot2': 49, 'state': 'normal', 'yaw': -4.05, 'datetime': '2018-10-12 19:15:24.324233', 'mgs': 0, 'depth': 1.233, 'time': 22.2, 'pitch': 2.24, 'roll': 3.44}
{'lipoC2': 8.23, 'temp': 28.25, 'lipoC3S3': 12.56, 'rot1': 194, 'rot0': 197, 'rot3': 42, 'rot2': 49, 'state': 'normal', 'yaw': -4.44, 'datetime': '2018-10-12 19:15:24.422278', 'mgs': 0, 'depth': 1.233, 'time': 22.3, 'pitch': 2.1, 'roll': 3.04}
{'lipoC2': 8.24, 'temp': 28.25, 'lipoC3S3': 12.47, 'rot1': 195, 'rot0': 198, 'rot3': 42, 'rot2': 49, 'state': 'normal', 'yaw': -4.58, 'datetime': '2018-10-12 19:15:24.521251', 'mgs': 0, 'depth': 1.233, 'time': 22.4, 'pitch': 1.83, 'roll': 2.35}
{'lipoC2': 8.23, 'temp': 28.25, 'lipoC3S3': 12.46, 'rot1': 196, 'rot0': 199, 'rot3': 42, 'rot2': 49, 'state': 'normal', 'yaw': -4.41, 'datetime': '2018-10-12 19:15:24.619897', 'mgs': 0, 'depth': 1.309, 'time': 22.49, 'pitch': 1.53, 'roll': 1.64}
{'lipoC2': 8.23, 'temp': 28.25, 'lipoC3S3': 12.47, 'rot1': 197, 'rot0': 199, 'rot3': 42, 'rot2': 49, 'state': 'normal', 'yaw': -3.96, 'datetime': '2018-10-12 19:15:24.717265', 'mgs': 0, 'depth': 1.309, 'time': 22.59, 'pitch': 1.42, 'roll': 1.26}
{'lipoC2': 8.23, 'temp': 28.25, 'lipoC3S3': 12.46, 'rot1': 198, 'rot0': 200, 'rot3': 42, 'rot2': 49, 'state': 'normal', 'yaw': -3.23, 'datetime': '2018-10-12 19:15:24.814781', 'mgs': 0, 'depth': 1.309, 'time': 22.69, 'pitch': 1.51, 'roll': 1.22}
{'lipoC2': 8.24, 'temp': 28.25, 'lipoC3S3': 12.55, 'rot1': 199, 'rot0': 201, 'rot3': 42, 'rot2': 49, 'state': 'normal', 'yaw': -2.38, 'datetime': '2018-10-12 19:15:24.912519', 'mgs': 0, 'depth': 1.385, 'time': 22.79, 'pitch': 1.69, 'roll': 1.39}
{'lipoC2': 8.24, 'temp': 28.25, 'lipoC3S3': 12.55, 'rot1': 200, 'rot0': 202, 'rot3': 42, 'rot2': 49, 'state': 'normal', 'yaw': -1.22, 'datetime': '2018-10-12 19:15:25.010012', 'mgs': 0, 'depth': 1.614, 'time': 22.89, 'pitch': 1.94, 'roll': 1.71}
{'lipoC2': 8.23, 'temp': 28.25, 'lipoC3S3': 12.46, 'rot1': 201, 'rot0': 203, 'rot3': 42, 'rot2': 49, 'state': 'normal', 'yaw': 0.09, 'datetime': '2018-10-12 19:15:25.107657', 'mgs': 0, 'depth': 1.767, 'time': 22.98, 'pitch': 2.12, 'roll': 1.8}
{'lipoC2': 8.26, 'temp': 28.25, 'lipoC3S3': 12.51, 'rot1': 202, 'rot0': 204, 'rot3': 42, 'rot2': 50, 'state': 'normal', 'yaw': 1.49, 'datetime': '2018-10-12 19:15:25.205261', 'mgs': 0, 'depth': 2.072, 'time': 23.08, 'pitch': 2.13, 'roll': 1.58}
{'lipoC2': 8.23, 'temp': 28.25, 'lipoC3S3': 12.52, 'rot1': 203, 'rot0': 205, 'rot3': 43, 'rot2': 50, 'state': 'normal', 'yaw': 2.56, 'datetime': '2018-10-12 19:15:25.303190', 'mgs': 0, 'depth': 1.767, 'time': 23.18, 'pitch': 2.1, 'roll': 1.45}
{'lipoC2': 8.23, 'temp': 28.25, 'lipoC3S3': 12.52, 'rot1': 205, 'rot0': 206, 'rot3': 43, 'rot2': 51, 'state': 'normal', 'yaw': 3.41, 'datetime': '2018-10-12 19:15:25.400618', 'mgs': 0, 'depth': 1.767, 'time': 23.27, 'pitch': 2.07, 'roll': 1.63}
{'lipoC2': 8.23, 'temp': 28.25, 'lipoC3S3': 12.54, 'rot1': 206, 'rot0': 207, 'rot3': 44, 'rot2': 51, 'state': 'normal', 'yaw': 4.01, 'datetime': '2018-10-12 19:15:25.498230', 'mgs': 0, 'depth': 1.843, 'time': 23.37, 'pitch': 2.06, 'roll': 2.3}
{'lipoC2': 8.24, 'temp': 28.25, 'lipoC3S3': 12.54, 'rot1': 207, 'rot0': 209, 'rot3': 44, 'rot2': 52, 'state': 'normal', 'yaw': 4.25, 'datetime': '2018-10-12 19:15:25.595776', 'mgs': 0, 'depth': 1.843, 'time': 23.47, 'pitch': 2.05, 'roll': 3.26}
{'lipoC2': 8.23, 'temp': 28.25, 'lipoC3S3': 12.52, 'rot1': 208, 'rot0': 210, 'rot3': 45, 'rot2': 52, 'state': 'normal', 'yaw': 4.15, 'datetime': '2018-10-12 19:15:25.694337', 'mgs': 0, 'depth': 1.996, 'time': 23.57, 'pitch': 1.97, 'roll': 4.2}
{'lipoC2': 8.23, 'temp': 28.25, 'lipoC3S3': 12.46, 'rot1': 208, 'rot0': 211, 'rot3': 45, 'rot2': 53, 'state': 'normal', 'yaw': 3.73, 'datetime': '2018-10-12 19:15:25.793357', 'mgs': 0, 'depth': 1.462, 'time': 23.67, 'pitch': 1.8, 'roll': 5.1}
{'lipoC2': 8.24, 'temp': 28.25, 'lipoC3S3': 12.51, 'rot1': 209, 'rot0': 212, 'rot3': 46, 'rot2': 53, 'state': 'normal', 'yaw': 3.05, 'datetime': '2018-10-12 19:15:25.892039', 'mgs': 0, 'depth': 2.148, 'time': 23.77, 'pitch': 1.63, 'roll': 5.6}
{'lipoC2': 8.23, 'temp': 28.25, 'lipoC3S3': 12.46, 'rot1': 210, 'rot0': 214, 'rot3': 46, 'rot2': 54, 'state': 'normal', 'yaw': 2.14, 'datetime': '2018-10-12 19:15:25.990245', 'mgs': 0, 'depth': 1.385, 'time': 23.87, 'pitch': 1.5, 'roll': 5.81}
{'lipoC2': 8.23, 'temp': 28.25, 'lipoC3S3': 12.45, 'rot1': 211, 'rot0': 215, 'rot3': 47, 'rot2': 55, 'state': 'normal', 'yaw': 0.98, 'datetime': '2018-10-12 19:15:26.088083', 'mgs': 0, 'depth': 1.538, 'time': 23.96, 'pitch': 1.37, 'roll': 5.95}
{'lipoC2': 8.24, 'temp': 28.25, 'lipoC3S3': 12.47, 'rot1': 212, 'rot0': 216, 'rot3': 47, 'rot2': 55, 'state': 'normal', 'yaw': -0.38, 'datetime': '2018-10-12 19:15:26.185496', 'mgs': 0, 'depth': 1.462, 'time': 24.06, 'pitch': 1.28, 'roll': 6.13}
{'lipoC2': 8.23, 'temp': 28.25, 'lipoC3S3': 12.52, 'rot1': 212, 'rot0': 217, 'rot3': 47, 'rot2': 56, 'state': 'normal', 'yaw': -1.75, 'datetime': '2018-10-12 19:15:26.284489', 'mgs': 0, 'depth': 1.614, 'time': 24.16, 'pitch': 1.25, 'roll': 6.44}
{'lipoC2': 8.23, 'temp': 28.25, 'lipoC3S3': 12.52, 'rot1': 213, 'rot0': 218, 'rot3': 48, 'rot2': 56, 'state': 'normal', 'yaw': -3.35, 'datetime': '2018-10-12 19:15:26.383300', 'mgs': 0, 'depth': 1.385, 'time': 24.26, 'pitch': 1.23, 'roll': 6.86}
{'lipoC2': 8.24, 'temp': 28.25, 'lipoC3S3': 12.48, 'rot1': 214, 'rot0': 219, 'rot3': 48, 'rot2': 57, 'state': 'normal', 'yaw': -4.53, 'datetime': '2018-10-12 19:15:26.482299', 'mgs': 0, 'depth': 1.309, 'time': 24.36, 'pitch': 1.18, 'roll': 7.23}
{'lipoC2': 8.24, 'temp': 28.25, 'lipoC3S3': 12.54, 'rot1': 216, 'rot0': 220, 'rot3': 49, 'rot2': 57, 'state': 'normal', 'yaw': -5.2, 'datetime': '2018-10-12 19:15:26.579714', 'mgs': 0, 'depth': 1.233, 'time': 24.46, 'pitch': 1.08, 'roll': 7.49}
{'lipoC2': 8.24, 'temp': 28.25, 'lipoC3S3': 12.54, 'rot1': 217, 'rot0': 220, 'rot3': 49, 'rot2': 57, 'state': 'normal', 'yaw': -5.43, 'datetime': '2018-10-12 19:15:26.677193', 'mgs': 0, 'depth': 1.309, 'time': 24.55, 'pitch': 1.01, 'roll': 7.33}
{'lipoC2': 8.24, 'temp': 28.25, 'lipoC3S3': 12.55, 'rot1': 218, 'rot0': 221, 'rot3': 49, 'rot2': 57, 'state': 'normal', 'yaw': -5.36, 'datetime': '2018-10-12 19:15:26.775707', 'mgs': 0, 'depth': 1.462, 'time': 24.65, 'pitch': 0.9, 'roll': 6.79}
{'lipoC2': 8.23, 'temp': 28.25, 'lipoC3S3': 12.54, 'rot1': 219, 'rot0': 222, 'rot3': 49, 'rot2': 57, 'state': 'normal', 'yaw': -5.02, 'datetime': '2018-10-12 19:15:26.875101', 'mgs': 0, 'depth': 1.767, 'time': 24.75, 'pitch': 0.84, 'roll': 5.99}
{'lipoC2': 8.23, 'temp': 28.25, 'lipoC3S3': 12.54, 'rot1': 220, 'rot0': 223, 'rot3': 49, 'rot2': 58, 'state': 'normal', 'yaw': -4.45, 'datetime': '2018-10-12 19:15:26.973137', 'mgs': 0, 'depth': 1.614, 'time': 24.85, 'pitch': 0.84, 'roll': 5.46}
{'lipoC2': 8.23, 'temp': 28.25, 'lipoC3S3': 12.54, 'rot1': 221, 'rot0': 224, 'rot3': 50, 'rot2': 58, 'state': 'normal', 'yaw': -3.7, 'datetime': '2018-10-12 19:15:27.070781', 'mgs': 0, 'depth': 1.614, 'time': 24.95, 'pitch': 1.05, 'roll': 5.28}
{'lipoC2': 8.23, 'temp': 28.25, 'lipoC3S3': 12.54, 'rot1': 222, 'rot0': 225, 'rot3': 50, 'rot2': 59, 'state': 'normal', 'yaw': -2.83, 'datetime': '2018-10-12 19:15:27.168863', 'mgs': 0, 'depth': 1.462, 'time': 25.04, 'pitch': 1.34, 'roll': 5.21}
{'lipoC2': 8.23, 'temp': 28.25, 'lipoC3S3': 12.54, 'rot1': 223, 'rot0': 225, 'rot3': 51, 'rot2': 59, 'state': 'normal', 'yaw': -1.93, 'datetime': '2018-10-12 19:15:27.265936', 'mgs': 0, 'depth': 1.538, 'time': 25.14, 'pitch': 1.63, 'roll': 5.05}
{'lipoC2': 8.24, 'temp': 28.25, 'lipoC3S3': 12.54, 'rot1': 224, 'rot0': 226, 'rot3': 51, 'rot2': 60, 'state': 'normal', 'yaw': -0.84, 'datetime': '2018-10-12 19:15:27.363355', 'mgs': 0, 'depth': 1.462, 'time': 25.24, 'pitch': 1.91, 'roll': 4.8}
